addr:street,building,name,name:kn,addr:housenumber,addr:city,addr:postcode,name:en,nodes,building:levels,building:material,alt_name,shop,amenity,government,office,roof:levels,addr:housename,addr:suburb,organic,payment:credit_cards,payment:debit_cards,website,addr:country,branch,brand,brand:wikidata,email,phone,note,addr:district,addr:full,addr:state,source,nohousenumber,religion,layer,brand:ks,brand:pa,brand:ur,brand:wikipedia,cuisine,name:ks,name:pa,name:ur,takeaway,tourism,fixme,opening_hours,landuse,check_date,operator,dog,internet_access,pets,roof:shape,short_name,healthcare,air_conditioning,not:brand:wikidata,payment:cash,payment:contactless,building:levels:underground,construction,height,ways,type,building_category,area_sqm,levels,estimated_floor_area_sqm,height_meters,has_address,longitude,latitude
"100 feet Rd, EjipuraBangalore, Karnataka, India",yes,NDS Services Pay-TV Tecnology Pvt Ltd,nan,nan,nan,nan,nan,nan,nan,nan,nan,nan,nan,nan,nan,nan,nan,nan,nan,nan,nan,nan,nan,nan,nan,nan,nan,nan,nan,nan,nan,nan,nan,nan,nan,nan,nan,nan,nan,nan,nan,nan,nan,nan,nan,nan,nan,nan,nan,nan,nan,nan,nan,nan,nan,nan,nan,nan,nan,nan,nan,nan,nan,nan,nan,nan,residential,0.0,,0.0,,True,77.6282527,12.9374443
nan,yes,LIC,ಭಾರತೀಯ ಜೀವವಿಮಾ ನಿಗಮ,nan,nan,nan,nan,nan,nan,nan,nan,nan,nan,nan,nan,nan,nan,nan,nan,nan,nan,nan,nan,nan,nan,nan,nan,nan,nan,nan,nan,nan,nan,nan,nan,nan,nan,nan,nan,nan,nan,nan,nan,nan,nan,nan,nan,nan,nan,nan,nan,nan,nan,nan,nan,nan,nan,nan,nan,nan,nan,nan,nan,nan,nan,nan,residential,0.0,,0.0,,False,77.6330933,12.9265326
nan,yes,Railway Reservation Counter,nan,nan,nan,nan,nan,nan,nan,nan,nan,nan,nan,nan,nan,nan,nan,nan,nan,nan,nan,nan,nan,nan,nan,nan,nan,nan,nan,nan,nan,nan,nan,nan,nan,nan,nan,nan,nan,nan,nan,nan,nan,nan,nan,nan,nan,nan,nan,nan,nan,nan,nan,nan,nan,nan,nan,nan,nan,nan,nan,nan,nan,nan,nan,nan,residential,0.0,,0.0,,False,77.6227913,12.9310403
nan,yes,Sharekhan,nan,nan,nan,nan,nan,nan,nan,nan,nan,nan,nan,nan,nan,nan,nan,nan,nan,nan,nan,nan,nan,nan,nan,nan,nan,nan,nan,nan,nan,nan,nan,nan,nan,nan,nan,nan,nan,nan,nan,nan,nan,nan,nan,nan,nan,nan,nan,nan,nan,nan,nan,nan,nan,nan,nan,nan,nan,nan,nan,nan,nan,nan,nan,nan,residential,0.0,,0.0,,False,77.6214713,12.9417576
nan,school,Bethany Special School,nan,nan,nan,nan,nan,nan,nan,nan,nan,nan,nan,nan,nan,nan,nan,nan,nan,nan,nan,nan,nan,nan,nan,nan,nan,nan,nan,nan,nan,nan,nan,nan,nan,nan,nan,nan,nan,nan,nan,nan,nan,nan,nan,nan,nan,nan,nan,nan,nan,nan,nan,nan,nan,nan,nan,nan,nan,nan,nan,nan,nan,nan,nan,nan,institutional,0.0,,0.0,,False,77.6337015,12.9321815
nan,residential,279,nan,nan,nan,nan,nan,nan,nan,nan,nan,nan,nan,nan,nan,nan,nan,nan,nan,nan,nan,nan,nan,nan,nan,nan,nan,nan,nan,nan,nan,nan,nan,nan,nan,nan,nan,nan,nan,nan,nan,nan,nan,nan,nan,nan,nan,nan,nan,nan,nan,nan,nan,nan,nan,nan,nan,nan,nan,nan,nan,nan,nan,nan,nan,nan,residential,0.0,,0.0,,False,77.6212817,12.9399696
nan,residential,275/A,nan,nan,nan,nan,nan,nan,nan,nan,nan,nan,nan,nan,nan,nan,nan,nan,nan,nan,nan,nan,nan,nan,nan,nan,nan,nan,nan,nan,nan,nan,nan,nan,nan,nan,nan,nan,nan,nan,nan,nan,nan,nan,nan,nan,nan,nan,nan,nan,nan,nan,nan,nan,nan,nan,nan,nan,nan,nan,nan,nan,nan,nan,nan,nan,residential,0.0,,0.0,,False,77.6212358,12.9397604
nan,residential,326,nan,nan,nan,nan,nan,nan,nan,nan,nan,nan,nan,nan,nan,nan,nan,nan,nan,nan,nan,nan,nan,nan,nan,nan,nan,nan,nan,nan,nan,nan,nan,nan,nan,nan,nan,nan,nan,nan,nan,nan,nan,nan,nan,nan,nan,nan,nan,nan,nan,nan,nan,nan,nan,nan,nan,nan,nan,nan,nan,nan,nan,nan,nan,nan,residential,0.0,,0.0,,False,77.6221327,12.9408979
nan,residential,#314,nan,nan,nan,nan,nan,nan,nan,nan,nan,nan,nan,nan,nan,nan,nan,nan,nan,nan,nan,nan,nan,nan,nan,nan,nan,nan,nan,nan,nan,nan,nan,nan,nan,nan,nan,nan,nan,nan,nan,nan,nan,nan,nan,nan,nan,nan,nan,nan,nan,nan,nan,nan,nan,nan,nan,nan,nan,nan,nan,nan,nan,nan,nan,nan,residential,0.0,,0.0,,False,77.6229948,12.941634
nan,office,gatepass,nan,nan,Bengaluru,560035,Gatepass,nan,nan,nan,nan,nan,nan,nan,nan,nan,nan,nan,nan,nan,nan,nan,nan,nan,nan,nan,nan,nan,nan,nan,nan,nan,nan,nan,nan,nan,nan,nan,nan,nan,nan,nan,nan,nan,nan,nan,nan,nan,nan,nan,nan,nan,nan,nan,nan,nan,nan,nan,nan,nan,nan,nan,nan,nan,nan,nan,commercial,0.0,,0.0,,True,77.6311287,12.9324728
nan,office,nan,nan,nan,nan,nan,nan,"[363803732, 363803734, 363803736, 1758627943, 363803732]",5,glass,nan,nan,nan,nan,nan,nan,nan,nan,nan,nan,nan,nan,nan,nan,nan,nan,nan,nan,nan,nan,nan,nan,nan,nan,nan,nan,nan,nan,nan,nan,nan,nan,nan,nan,nan,nan,nan,nan,nan,nan,nan,nan,nan,nan,nan,nan,nan,nan,nan,nan,nan,nan,nan,nan,nan,nan,commercial,1153.19409272254,5.0,5765.970463612701,,False,77.6327876345069,12.928370957633938
nan,yes,Oasis Centre,nan,nan,nan,nan,nan,"[1274328890, 1274328867, 1274328913, 1274328908, 1274328920, 1274328876, 2449073269, 1274328859, 1274328860, 1274328893, 1274328890]",nan,nan,Salarpuria Oasis,mall,nan,nan,nan,nan,nan,nan,nan,nan,nan,nan,nan,nan,nan,nan,nan,nan,nan,nan,nan,nan,nan,nan,nan,nan,nan,nan,nan,nan,nan,nan,nan,nan,nan,nan,nan,nan,nan,nan,nan,nan,nan,nan,nan,nan,nan,nan,nan,nan,nan,nan,nan,nan,nan,nan,residential,4220.240760260547,,4220.240760260547,,False,77.62813246898668,12.937496377714762
nan,hotel,nan,nan,nan,nan,nan,nan,"[1279249746, 1279249741, 1279249743, 1279249747, 1279249748, 1279249744, 1279249745, 1279249749, 1279249746]",nan,nan,nan,nan,nan,nan,nan,nan,nan,nan,nan,nan,nan,nan,nan,nan,nan,nan,nan,nan,nan,nan,nan,nan,nan,nan,nan,nan,nan,nan,nan,nan,nan,nan,nan,nan,nan,nan,nan,nan,nan,nan,nan,nan,nan,nan,nan,nan,nan,nan,nan,nan,nan,nan,nan,nan,nan,nan,unknown,1846.8325715216697,,1846.8325715216697,,False,77.62763622260098,12.929085298428147
nan,transportation,nan,nan,nan,nan,nan,nan,"[1391210504, 1391210494, 1391210498, 1391210505, 1391210509, 1391210504]",nan,nan,nan,nan,nan,nan,nan,nan,nan,nan,nan,nan,nan,nan,nan,nan,nan,nan,nan,nan,nan,nan,nan,nan,nan,nan,nan,nan,nan,nan,nan,nan,nan,nan,nan,nan,nan,nan,nan,nan,nan,nan,nan,nan,nan,nan,nan,nan,nan,nan,nan,nan,nan,nan,nan,nan,nan,nan,unknown,4282.875962474029,,4282.875962474029,,False,77.62507156602906,12.94089229325391
nan,yes,nan,nan,nan,nan,nan,nan,"[1454746799, 1454746800, 1454746798, 1454746797, 1454746799]",nan,nan,nan,nan,nan,nan,nan,nan,nan,nan,nan,nan,nan,nan,nan,nan,nan,nan,nan,nan,nan,nan,nan,nan,nan,nan,nan,nan,nan,nan,nan,nan,nan,nan,nan,nan,nan,nan,nan,nan,nan,nan,nan,nan,nan,nan,nan,nan,nan,nan,nan,nan,nan,nan,nan,nan,nan,nan,residential,937.2080962494263,,937.2080962494263,,False,77.62468280000002,12.9383445
nan,office,nan,nan,nan,nan,nan,nan,"[1469644289, 1469644291, 1469644297, 1469644294, 1469644289]",nan,nan,nan,nan,nan,nan,nan,nan,nan,nan,nan,nan,nan,nan,nan,nan,nan,nan,nan,nan,nan,nan,nan,nan,nan,nan,nan,nan,nan,nan,nan,nan,nan,nan,nan,nan,nan,nan,nan,nan,nan,nan,nan,nan,nan,nan,nan,nan,nan,nan,nan,nan,nan,nan,nan,nan,nan,nan,commercial,1394.1149299406009,,1394.1149299406009,,False,77.63280288867526,12.92778685973019
nan,yes,Vemana Institute of Technology,nan,nan,nan,nan,nan,"[1476497837, 1476497840, 12503909699, 12503909700, 1476497824, 1476497836, 1476497839, 12503990601, 1476497842, 12503990602, 12503990603, 12503990604, 12503990605, 12503990608, 12503990607, 12503990606, 1476497835, 1476497844, 12503990610, 12503990609, 1476497837]",nan,nan,nan,nan,college,nan,nan,nan,nan,nan,nan,nan,nan,nan,nan,nan,nan,nan,nan,nan,nan,nan,nan,nan,nan,nan,nan,nan,nan,nan,nan,nan,nan,nan,nan,nan,nan,nan,nan,nan,nan,nan,nan,nan,nan,nan,nan,nan,nan,nan,nan,nan,nan,nan,nan,nan,nan,nan,residential,1681.4868987606656,,1681.4868987606656,,False,77.62258017542999,12.929611778405706
nan,yes,RJS Institute of Management Studies,nan,nan,nan,nan,nan,"[1476500010, 1476499991, 1476499995, 1476499993, 1476500010]",nan,nan,nan,nan,college,nan,nan,nan,nan,nan,nan,nan,nan,nan,nan,nan,nan,nan,nan,nan,nan,nan,nan,nan,nan,nan,nan,nan,nan,nan,nan,nan,nan,nan,nan,nan,nan,nan,nan,nan,nan,nan,nan,nan,nan,nan,nan,nan,nan,nan,nan,nan,nan,nan,nan,nan,nan,nan,residential,2628.3468553224475,,2628.3468553224475,,False,77.62300452698997,12.929462090188391
nan,yes,Regional Passport Office,nan,nan,nan,nan,nan,"[1757024865, 1757024858, 1757024856, 1757024860, 1757024865]",nan,nan,nan,nan,nan,register_office,government,nan,nan,nan,nan,nan,nan,nan,nan,nan,nan,nan,nan,nan,nan,nan,nan,nan,nan,nan,nan,nan,nan,nan,nan,nan,nan,nan,nan,nan,nan,nan,nan,nan,nan,nan,nan,nan,nan,nan,nan,nan,nan,nan,nan,nan,nan,nan,nan,nan,nan,nan,residential,975.3904781660015,,975.3904781660015,,False,77.61918955374313,12.946062567043459
nan,yes,nan,nan,nan,nan,nan,nan,"[1757024861, 1757024866, 1757024862, 1757024859, 1757024861]",nan,nan,nan,nan,nan,nan,nan,nan,nan,nan,nan,nan,nan,nan,nan,nan,nan,nan,nan,nan,nan,nan,nan,nan,nan,nan,nan,nan,nan,nan,nan,nan,nan,nan,nan,nan,nan,nan,nan,nan,nan,nan,nan,nan,nan,nan,nan,nan,nan,nan,nan,nan,nan,nan,nan,nan,nan,nan,residential,337.4557653182267,,337.4557653182267,,False,77.6194947,12.946164600000001
nan,office,Ashford Park View,nan,nan,nan,nan,nan,"[1758627946, 1758627944, 1758627945, 1758627947, 1758627946]",3,glass,nan,nan,nan,nan,nan,nan,nan,nan,nan,nan,nan,nan,nan,nan,nan,nan,nan,nan,nan,nan,nan,nan,nan,nan,nan,nan,nan,nan,nan,nan,nan,nan,nan,nan,nan,nan,nan,nan,nan,nan,nan,nan,nan,nan,nan,nan,nan,nan,nan,nan,nan,nan,nan,nan,nan,nan,commercial,1441.53818574129,3.0,4324.614557223869,,False,77.6327867256312,12.928684363880638
nan,office,Prestige Atlanta,nan,nan,nan,nan,nan,"[1758627952, 1758627948, 1758627950, 1758627954, 1758627952]",5,nan,nan,nan,nan,nan,nan,1,nan,nan,nan,nan,nan,nan,nan,nan,nan,nan,nan,nan,nan,nan,nan,nan,nan,nan,nan,nan,nan,nan,nan,nan,nan,nan,nan,nan,nan,nan,nan,nan,nan,nan,nan,nan,nan,nan,nan,nan,nan,nan,nan,nan,nan,nan,nan,nan,nan,nan,commercial,1032.2698967301028,5.0,5161.349483650514,,False,77.63280789835902,12.928962579564717
80 Feet Road,office,nan,nan,nan,nan,560034,nan,"[1758627933, 1758627926, 1758627931, 1758627935, 1758627933]",4,nan,nan,nan,nan,nan,nan,nan,The Summit,Koramangala,nan,nan,nan,nan,nan,nan,nan,nan,nan,nan,nan,nan,nan,nan,nan,nan,nan,nan,nan,nan,nan,nan,nan,nan,nan,nan,nan,nan,nan,nan,nan,nan,nan,nan,nan,nan,nan,nan,nan,nan,nan,nan,nan,nan,nan,nan,nan,nan,commercial,2132.443427534422,4.0,8529.773710137688,,True,77.63282516994659,12.92745403477577
"100 Feet Rd, 3rd Block, Koramangala",commercial,Spencer,nan,nan,Bengaluru,560034,nan,"[1758627919, 1758627907, 1758627903, 1758627929, 1758627919]",nan,nan,nan,supermarket,nan,nan,nan,nan,nan,nan,yes,yes,yes,https://www.spencers.in/,nan,nan,nan,nan,nan,nan,nan,nan,nan,nan,nan,nan,nan,nan,nan,nan,nan,nan,nan,nan,nan,nan,nan,nan,nan,nan,nan,nan,nan,nan,nan,nan,nan,nan,nan,nan,nan,nan,nan,nan,nan,nan,nan,nan,commercial,977.5543578416614,,977.5543578416614,,True,77.6330217,12.927175149999998
"80 Feet Road, 4th Block, AVS Layout, Koramangala",commercial,Art Arcade,nan,107,Bengaluru,560034,nan,"[1761893935, 1761893937, 1761893938, 1761893939, 1761893940, 1761893941, 1761893932, 1761893930, 1761893931, 1761893933, 1761893934, 1761893935]",5,nan,nan,nan,nan,nan,nan,nan,nan,nan,nan,nan,nan,nan,nan,nan,nan,nan,nan,nan,nan,nan,nan,nan,nan,nan,nan,nan,nan,nan,nan,nan,nan,nan,nan,nan,nan,nan,nan,nan,nan,nan,nan,nan,nan,nan,nan,nan,nan,nan,nan,nan,nan,nan,nan,nan,nan,nan,commercial,305.84972838967724,5.0,1529.2486419483862,,True,77.62850970683343,12.935901103474691
80 Feet Peripheral Rd,retail,Reliance Digital,ರಿಲಾಯನ್ಸ್ ಡಿಜಿಟಲ್,18,Bangalore,560095,nan,"[1761893963, 1761893964, 1761893968, 1761893966, 1761893965, 1761893960, 1761893963]",nan,nan,nan,electronics,nan,nan,nan,nan,"Reliancedigital Retail Ltd.,",nan,nan,nan,nan,https://www.reliancedigital.in/,IN,Retail Ltd,Reliance Digital,Q7311012,crm_dan.4598_kor@zmail.ril.com,+91 80 40933777,nan,nan,nan,nan,nan,nan,nan,nan,nan,nan,nan,nan,nan,nan,nan,nan,nan,nan,nan,nan,nan,nan,nan,nan,nan,nan,nan,nan,nan,nan,nan,nan,nan,nan,nan,nan,nan,nan,commercial,694.1588739887434,,694.1588739887434,,True,77.6280704065918,12.936462309263872
nan,apartments,Jain Heights Avalon,nan,nan,nan,nan,nan,"[1761893956, 1761893954, 1761893957, 1761893955, 1761893953, 1761893952, 1761893951, 1761893950, 1761893949, 1761893945, 1761893942, 1761893943, 1761893944, 1761893946, 1761893948, 1761893956]",8,nan,nan,nan,nan,nan,nan,nan,nan,nan,nan,nan,nan,nan,nan,nan,nan,nan,nan,nan,nan,nan,nan,nan,nan,nan,nan,nan,nan,nan,nan,nan,nan,nan,nan,nan,nan,nan,nan,nan,nan,nan,nan,nan,nan,nan,nan,nan,nan,nan,nan,nan,nan,nan,nan,nan,nan,nan,residential,419.42848842244814,8.0,3355.427907379585,,False,77.62839439960054,12.936119267890918
nan,commercial,Lotus,nan,nan,nan,nan,nan,"[1761893967, 1761893962, 1761893958, 1761893961, 1761893967]",nan,nan,nan,nan,nan,nan,nan,nan,nan,nan,nan,nan,nan,nan,nan,nan,nan,nan,nan,nan,nan,nan,nan,nan,nan,nan,nan,nan,nan,nan,nan,nan,nan,nan,nan,nan,nan,nan,nan,nan,nan,nan,nan,nan,nan,nan,nan,nan,nan,nan,nan,nan,nan,nan,nan,nan,nan,nan,commercial,565.1120430765736,,565.1120430765736,,False,77.62742074253862,12.936410858738657
nan,commercial,nan,nan,nan,nan,nan,nan,"[1761893970, 1761893969, 1761893972, 1761893977, 1761893975, 1761893971, 1761893970]",nan,nan,nan,nan,nan,nan,nan,nan,nan,nan,nan,nan,nan,nan,nan,nan,nan,nan,nan,nan,The Brew House,nan,nan,nan,nan,nan,nan,nan,nan,nan,nan,nan,nan,nan,nan,nan,nan,nan,nan,nan,nan,nan,nan,nan,nan,nan,nan,nan,nan,nan,nan,nan,nan,nan,nan,nan,nan,nan,commercial,1072.2315864639672,,1072.2315864639672,,False,77.62710907704108,12.937807705118233
nan,retail,nan,nan,nan,nan,nan,nan,"[1761893973, 1761893974, 1761893976, 3525179513, 3525179517, 1761893979, 1761893980, 1761893981, 1761893982, 1761893978, 1761893973]",nan,nan,nan,nan,nan,nan,nan,nan,nan,nan,nan,nan,nan,nan,nan,nan,nan,nan,nan,nan,nan,nan,nan,nan,nan,nan,nan,nan,nan,nan,nan,nan,nan,nan,nan,nan,nan,nan,nan,nan,nan,nan,nan,nan,nan,nan,nan,nan,nan,nan,nan,nan,nan,nan,nan,nan,nan,nan,commercial,1074.6924170135221,,1074.6924170135221,,False,77.62751512666237,12.93808578383484
nan,commercial,nan,nan,nan,nan,nan,nan,"[1762201153, 1762201150, 1762201152, 1762201156, 1762201153]",5,nan,nan,nan,nan,nan,nan,nan,nan,nan,nan,nan,nan,nan,nan,nan,nan,nan,nan,nan,nan,nan,nan,nan,nan,nan,nan,nan,nan,nan,nan,nan,nan,nan,nan,nan,nan,nan,nan,nan,nan,nan,nan,nan,nan,nan,nan,nan,nan,nan,nan,nan,nan,nan,nan,nan,nan,nan,commercial,392.11674786653384,5.0,1960.5837393326692,,False,77.62732981615413,12.937196755483155
nan,yes,BSNL Telephone Exchange,ಬಿಎಸ್ಎನ್ಎಲ್,nan,nan,nan,nan,"[1762395907, 1762395909, 1762395911, 1762395917, 1762395913, 1762395915, 1762395905, 1762395904, 1762395907]",nan,nan,nan,nan,nan,nan,nan,nan,nan,nan,nan,nan,nan,nan,nan,nan,nan,nan,nan,nan,nan,nan,nan,nan,nan,nan,nan,nan,nan,nan,nan,nan,nan,nan,nan,nan,nan,nan,nan,nan,nan,nan,nan,nan,nan,nan,nan,nan,nan,nan,nan,nan,nan,nan,nan,nan,nan,nan,residential,709.0953690890079,,709.0953690890079,,False,77.62715087152583,12.93229904662041
nan,yes,Chinmaya Mission School,ಚಿನ್ಮಯ ಶಾಲೆ,nan,nan,nan,nan,"[1762395953, 1762395941, 1762395942, 1762395948, 1762395955, 1762395946, 1762395934, 1762395921, 1762395928, 1762395926, 1762395930, 1762395932, 1762395944, 1762395961, 1762395959, 1762395964, 1762395957, 1762395953]",nan,nan,nan,nan,nan,nan,nan,nan,nan,nan,nan,nan,nan,nan,nan,nan,nan,nan,nan,nan,nan,nan,nan,nan,nan,nan,nan,nan,nan,nan,nan,nan,nan,nan,nan,nan,nan,nan,nan,nan,nan,nan,nan,nan,nan,nan,nan,nan,nan,nan,nan,nan,nan,nan,nan,nan,nan,nan,residential,1763.8452315933787,,1763.8452315933787,,False,77.62764590656882,12.93518551100769
nan,yes,nan,nan,nan,nan,nan,nan,"[1768301522, 1768301521, 1768301524, 1768301525, 1768301522]",nan,nan,nan,nan,nan,nan,nan,nan,nan,nan,nan,nan,nan,nan,nan,nan,nan,nan,nan,nan,nan,nan,nan,nan,nan,nan,nan,nan,nan,nan,nan,nan,nan,nan,nan,nan,nan,nan,nan,nan,nan,nan,nan,nan,nan,nan,nan,nan,nan,nan,nan,nan,nan,nan,nan,nan,nan,nan,residential,461.23085541765903,,461.23085541765903,,False,77.629914702689,12.933848033768873
"640, 12Th Main, 80 Ft Road, 4Th Block, Koramangala",commercial,Sneha Plaza,nan,640,Bengaluru,560034,nan,"[1768301530, 1768301529, 1768301527, 1768301526, 1768301528, 1768301530]",nan,nan,nan,nan,nan,nan,nan,nan,nan,nan,nan,nan,nan,nan,nan,nan,nan,nan,nan,nan,nan,Bengaluru Urban,"640, 12Th Main, 80 Ft Road, 4Th Block, Koramangala",Karnataka,OpenGovernmentData,nan,nan,nan,nan,nan,nan,nan,nan,nan,nan,nan,nan,nan,nan,nan,nan,nan,nan,nan,nan,nan,nan,nan,nan,nan,nan,nan,nan,nan,nan,nan,nan,nan,commercial,478.0455239532409,,478.0455239532409,,True,77.62957301599307,12.934164694505013
nan,commercial,K R Cornerstone,nan,nan,nan,nan,nan,"[1768301532, 1768301531, 1768301533, 1768301534, 1768301536, 1768301535, 1768301532]",nan,nan,nan,nan,nan,nan,nan,nan,nan,nan,nan,nan,nan,nan,nan,nan,nan,nan,nan,nan,nan,nan,nan,nan,nan,nan,nan,nan,nan,nan,nan,nan,nan,nan,nan,nan,nan,nan,nan,nan,nan,nan,nan,nan,nan,nan,nan,nan,nan,nan,nan,nan,nan,nan,nan,nan,nan,nan,commercial,368.1779000766363,,368.1779000766363,,False,77.62995967549483,12.934454320866521
nan,commercial,SSS Complex,nan,nan,nan,nan,nan,"[1768301523, 1768301519, 1768301518, 1768301520, 1768301523]",nan,nan,nan,nan,nan,nan,nan,nan,nan,nan,nan,nan,nan,nan,nan,nan,nan,nan,nan,nan,nan,nan,nan,nan,nan,nan,nan,nan,nan,nan,nan,nan,nan,nan,nan,nan,nan,nan,nan,nan,nan,nan,nan,nan,nan,nan,nan,nan,nan,nan,nan,nan,nan,nan,nan,nan,nan,nan,commercial,495.0264831920516,,495.0264831920516,,False,77.6301360794173,12.933647478463923
nan,apartments,Yamuna Block,ಯಮುನ ಬ್ಲಾಕ್,nan,nan,nan,nan,"[1837285109, 1837285132, 1837285138, 1837285149, 1837285142, 1837285164, 1837285205, 1837285191, 1837285189, 1837285177, 1837285181, 1837285166, 1837285109]",7,nan,nan,nan,nan,nan,nan,nan,nan,nan,nan,nan,nan,nan,nan,nan,nan,nan,nan,nan,nan,nan,nan,nan,nan,yes,nan,nan,nan,nan,nan,nan,nan,nan,nan,nan,nan,nan,nan,nan,nan,nan,nan,nan,nan,nan,nan,nan,nan,nan,nan,nan,nan,nan,nan,nan,nan,nan,residential,7113.621740272569,7.0,49795.35218190798,,False,77.62221542532517,12.947537213483901
nan,apartments,Krishna Block,ಕೃಷ್ಣಾ ಬ್ಲಾಕ್,nan,nan,nan,nan,"[1837285051, 1837285065, 1837285070, 1837285074, 1837285073, 1837285078, 1837285154, 1837285136, 1837285130, 1837285112, 1837285123, 1837285106, 1837285051]",7,nan,nan,nan,nan,nan,nan,nan,nan,nan,nan,nan,nan,nan,nan,nan,nan,nan,nan,nan,nan,nan,nan,nan,nan,yes,nan,nan,nan,nan,nan,nan,nan,nan,nan,nan,nan,nan,nan,nan,nan,nan,nan,nan,nan,nan,nan,nan,nan,nan,nan,nan,nan,nan,nan,nan,nan,nan,residential,7113.444987794721,7.0,49794.11491456305,,False,77.62268497170885,12.94690951047143
nan,apartments,Godavari Block,ಗೋದಾವರಿ ಬ್ಲಾಕ್,nan,nan,nan,nan,"[1837284887, 1837284876, 1837284883, 1837284878, 1837284860, 1837284857, 1837284899, 1837284915, 1837284900, 1837284901, 1837284962, 1837284965, 1837284887]",nan,nan,nan,nan,nan,nan,nan,nan,nan,nan,nan,nan,nan,nan,nan,nan,nan,nan,nan,nan,nan,nan,nan,nan,nan,yes,nan,nan,nan,nan,nan,nan,nan,nan,nan,nan,nan,nan,nan,nan,nan,nan,nan,nan,nan,nan,nan,nan,nan,nan,nan,nan,nan,nan,nan,nan,nan,nan,residential,7092.434431170908,,7092.434431170908,,False,77.6245886963935,12.943677587489665
nan,apartments,Ganga Block,ಗಂಗಾ ಬ್ಲಾಕ್,nan,nan,nan,nan,"[1837285173, 1837285195, 1837285197, 1837285201, 1837285199, 1837285211, 1837285241, 1837285232, 1837285227, 1837285217, 1837285223, 1837285209, 1837285173]",nan,nan,nan,nan,nan,nan,nan,nan,nan,nan,nan,nan,nan,nan,nan,nan,nan,nan,nan,nan,nan,nan,nan,nan,nan,nan,nan,nan,nan,nan,nan,nan,nan,nan,nan,nan,nan,nan,nan,nan,nan,nan,nan,nan,nan,nan,nan,nan,nan,nan,nan,nan,nan,nan,nan,nan,nan,nan,residential,6423.72627837933,,6423.72627837933,,False,77.62173767495179,12.94818721002304
nan,apartments,Tungabhadra Block,ತುಂಗಭದ್ರ ಬ್ಲಾಕ್,nan,nan,nan,nan,"[1837284840, 1837284847, 1837284849, 1837284853, 1837284850, 1837284855, 1837284889, 1837284880, 1837284874, 1837284858, 1837284861, 1837284856, 1837284840]",nan,nan,nan,nan,nan,nan,nan,nan,nan,nan,nan,nan,nan,nan,nan,nan,nan,nan,nan,nan,nan,nan,nan,nan,nan,yes,nan,nan,nan,nan,nan,nan,nan,nan,nan,nan,nan,nan,nan,nan,nan,nan,nan,nan,nan,nan,nan,nan,nan,nan,nan,nan,nan,nan,nan,nan,nan,nan,residential,7113.584137519613,,7113.584137519613,,False,77.62533707170884,12.942959810471432
nan,apartments,Cauvery Block,ಕಾವೇರಿ ಬ್ಲಾಕ್,nan,nan,nan,nan,"[1837285049, 1837285057, 1837285061, 1837285071, 1837285069, 1837285076, 1837285148, 1837285128, 1837285117, 1837285108, 1837285111, 1837285077, 1837285049]",7,nan,nan,nan,nan,nan,nan,nan,nan,nan,nan,nan,nan,nan,nan,nan,nan,nan,nan,nan,nan,nan,nan,nan,nan,yes,nan,nan,nan,nan,nan,nan,nan,nan,nan,nan,nan,nan,nan,nan,nan,nan,nan,nan,nan,nan,nan,nan,nan,nan,nan,nan,nan,nan,nan,nan,nan,nan,residential,6920.187613629467,7.0,48441.31329540627,,False,77.6210587064731,12.94683906467122
nan,apartments,Netravati Block,ನೇತ್ರಾವತಿ ಬ್ಲಾಕ್,nan,nan,nan,nan,"[1837285017, 1837285025, 1837285028, 1837285038, 1837285031, 1837285045, 1837285075, 1837285067, 1837285059, 1837285053, 1837285055, 1837285047, 1837285017]",7,nan,nan,nan,nan,nan,nan,nan,nan,nan,nan,nan,nan,nan,nan,nan,nan,nan,nan,nan,nan,nan,nan,nan,nan,yes,nan,nan,nan,nan,nan,nan,nan,nan,nan,nan,nan,nan,nan,nan,nan,nan,nan,nan,nan,nan,nan,nan,nan,nan,nan,nan,nan,nan,nan,nan,nan,nan,residential,7113.547168237945,7.0,49794.830177665615,,False,77.62312097790571,12.946250111986558
nan,apartments,Ghataprabha Block,ಘಟಪ್ರಭ ಬ್ಲಾಕ್,nan,nan,nan,nan,"[1837284897, 1837284893, 1837284896, 1837284894, 1837284892, 1837284890, 1837284968, 1837284973, 1837284970, 1837284972, 1837284976, 1837284979, 1837284897]",nan,nan,nan,nan,nan,nan,nan,nan,nan,nan,nan,nan,nan,nan,nan,nan,nan,nan,nan,nan,nan,nan,nan,nan,nan,yes,nan,nan,nan,nan,nan,nan,nan,nan,nan,nan,nan,nan,nan,nan,nan,nan,nan,nan,nan,nan,nan,nan,nan,nan,nan,nan,nan,nan,nan,nan,nan,nan,residential,7092.554569759359,,7092.554569759359,,False,77.6252690995003,12.944121479248826
nan,apartments,Malaprabha Block,ಮಲಪ್ರಭ ಬ್ಲಾಕ್,nan,nan,nan,nan,"[1837284975, 1837285001, 1837285005, 1837285002, 1837285006, 1837284995, 1837285000, 1837284984, 1837284980, 1837284985, 1837284982, 1837284977, 1837284975]",nan,nan,nan,nan,nan,nan,nan,nan,nan,nan,nan,nan,nan,nan,nan,nan,nan,nan,nan,nan,nan,nan,nan,nan,nan,nan,nan,nan,nan,nan,nan,nan,nan,nan,nan,nan,nan,nan,nan,nan,nan,nan,nan,nan,nan,nan,nan,nan,nan,nan,nan,nan,nan,nan,nan,nan,nan,nan,residential,5483.931981129424,,5483.931981129424,,False,77.62456242033593,12.945063179018273
nan,apartments,nan,nan,nan,nan,nan,nan,"[1837285014, 12069211118, 12069211120, 12069211121, 12069211119, 1837285020, 12069211126, 12069211127, 12069211128, 12069211129, 1837285011, 12069211130, 12069211132, 12069211133, 12069211131, 1837285004, 12069211122, 12069211123, 12069211142, 12069211137, 12069211143, 12069211138, 12069211139, 12069211140, 12069211141, 12069211136, 12069211135, 12069211134, 12069211124, 12069211125, 1837285014]",nan,nan,nan,nan,nan,nan,nan,nan,nan,nan,nan,nan,nan,nan,nan,nan,nan,nan,nan,nan,nan,nan,nan,nan,nan,nan,nan,nan,nan,nan,nan,nan,nan,nan,nan,nan,nan,nan,nan,nan,nan,nan,nan,nan,nan,nan,nan,nan,nan,nan,nan,nan,nan,nan,nan,nan,nan,nan,residential,620.4724791277166,,620.4724791277166,,False,77.62236120599017,12.945630761433288
nan,apartments,Sharavathi Block,ಶರಾವತಿ ಬ್ಲಾಕ್,nan,nan,nan,nan,"[1837285018, 1837285043, 1837285072, 1837285040, 1837285027, 1837285033, 1837285023, 1837285026, 1837285018]",7,nan,nan,nan,nan,nan,nan,nan,nan,nan,nan,nan,nan,nan,nan,nan,nan,nan,nan,nan,nan,nan,nan,nan,nan,yes,nan,nan,nan,nan,nan,nan,nan,nan,nan,nan,nan,nan,nan,nan,nan,nan,nan,nan,nan,nan,nan,nan,nan,nan,nan,nan,nan,nan,nan,nan,nan,nan,residential,6414.657050275477,7.0,44902.59935192834,,False,77.62151136831775,12.946248916915573
nan,yes,nan,nan,nan,nan,nan,nan,"[2518837266, 2518837265, 2518837261, 2518837262, 2518837266]",nan,nan,nan,nan,place_of_worship,nan,nan,nan,nan,nan,nan,nan,nan,nan,nan,nan,nan,nan,nan,nan,nan,nan,nan,nan,nan,nan,hindu,nan,nan,nan,nan,nan,nan,nan,nan,nan,nan,nan,nan,nan,nan,nan,nan,nan,nan,nan,nan,nan,nan,nan,nan,nan,nan,nan,nan,nan,nan,nan,residential,144.22217864241463,,144.22217864241463,,False,77.62726292358545,12.928659486802237
nan,yes,Syndicate Bank,ಸಿಂಡಿಕೇಟ್ ಬ್ಯಾಂಕ್,nan,nan,nan,nan,"[3071135144, 3071135145, 3071135146, 3071135147, 3071135144]",nan,nan,nan,nan,bank,nan,nan,nan,nan,nan,nan,nan,nan,nan,nan,nan,Syndicate Bank,Q2004088,nan,nan,nan,nan,nan,nan,nan,nan,nan,nan,nan,nan,nan,nan,nan,nan,nan,nan,nan,nan,nan,nan,nan,nan,nan,nan,nan,nan,nan,nan,nan,nan,nan,nan,nan,nan,nan,nan,nan,nan,residential,479.1358915939765,,479.1358915939765,,False,77.62342436657033,12.944142636735934
nan,apartments,nan,nan,nan,nan,nan,nan,"[3515672628, 3515672629, 3515672630, 3515672631, 3515672628]",nan,nan,nan,nan,nan,nan,nan,nan,nan,nan,nan,nan,nan,nan,nan,nan,nan,nan,nan,nan,nan,nan,nan,nan,nan,nan,nan,nan,nan,nan,nan,nan,nan,nan,nan,nan,nan,nan,nan,nan,nan,nan,nan,nan,nan,nan,nan,nan,nan,nan,nan,nan,nan,nan,nan,nan,nan,nan,residential,803.1333811441538,,803.1333811441538,,False,77.62307075,12.944640549999999
nan,yes,nan,nan,nan,nan,nan,nan,"[3520006175, 3520006176, 3520006177, 3520006178, 3520006175]",nan,nan,nan,nan,nan,nan,nan,nan,nan,nan,nan,nan,nan,nan,nan,nan,nan,nan,nan,nan,nan,nan,nan,nan,nan,nan,nan,nan,nan,nan,nan,nan,nan,nan,nan,nan,nan,nan,nan,nan,nan,nan,nan,nan,nan,nan,nan,nan,nan,nan,nan,nan,nan,nan,nan,nan,nan,nan,residential,75.09671048216711,,75.09671048216711,,False,77.62233744128332,12.940787316465888
nan,yes,nan,nan,nan,nan,nan,nan,"[3520006179, 3520006180, 3520006181, 3520006182, 3520006179]",nan,nan,nan,nan,nan,nan,nan,nan,nan,nan,nan,nan,nan,nan,nan,nan,nan,nan,nan,nan,nan,nan,nan,nan,nan,nan,nan,nan,nan,nan,nan,nan,nan,nan,nan,nan,nan,nan,nan,nan,nan,nan,nan,nan,nan,nan,nan,nan,nan,nan,nan,nan,nan,nan,nan,nan,nan,nan,residential,88.5771043697833,,88.5771043697833,,False,77.62241204595863,12.940831441582148
nan,yes,nan,nan,nan,nan,nan,nan,"[3520006183, 3520006184, 3520006185, 3520006186, 3520006187, 3520006188, 3520006183]",nan,nan,nan,nan,nan,nan,nan,nan,nan,nan,nan,nan,nan,nan,nan,nan,nan,nan,nan,nan,nan,nan,nan,nan,nan,nan,nan,nan,nan,nan,nan,nan,nan,nan,nan,nan,nan,nan,nan,nan,nan,nan,nan,nan,nan,nan,nan,nan,nan,nan,nan,nan,nan,nan,nan,nan,nan,nan,residential,90.14803360466655,,90.14803360466655,,False,77.62247969701221,12.94088489323302
nan,yes,nan,nan,nan,nan,nan,nan,"[3520006189, 3520006190, 3520006191, 3520006192, 3520006189]",nan,nan,nan,nan,nan,nan,nan,nan,nan,nan,nan,nan,nan,nan,nan,nan,nan,nan,nan,nan,nan,nan,nan,nan,nan,nan,nan,nan,nan,nan,nan,nan,nan,nan,nan,nan,nan,nan,nan,nan,nan,nan,nan,nan,nan,nan,nan,nan,nan,nan,nan,nan,nan,nan,nan,nan,nan,nan,residential,95.07409509650662,,95.07409509650662,,False,77.62251533748213,12.940962920886983
nan,yes,nan,nan,nan,nan,nan,nan,"[3520007593, 3520007594, 3520007595, 3520007596, 3520007593]",nan,nan,nan,nan,nan,nan,nan,nan,nan,nan,nan,nan,nan,nan,nan,nan,nan,nan,nan,nan,nan,nan,nan,nan,nan,nan,nan,nan,nan,nan,nan,nan,nan,nan,nan,nan,nan,nan,nan,nan,nan,nan,nan,nan,nan,nan,nan,nan,nan,nan,nan,nan,nan,nan,nan,nan,nan,nan,residential,107.66544476105575,,107.66544476105575,,False,77.6225904957201,12.94099808030258
nan,yes,nan,nan,nan,nan,nan,nan,"[3520007597, 3520007598, 3520007599, 3520007600, 3520007597]",nan,nan,nan,nan,nan,nan,nan,nan,nan,nan,nan,nan,nan,nan,nan,nan,nan,nan,nan,nan,nan,nan,nan,nan,nan,nan,nan,nan,nan,nan,nan,nan,nan,nan,nan,nan,nan,nan,nan,nan,nan,nan,nan,nan,nan,nan,nan,nan,nan,nan,nan,nan,nan,nan,nan,nan,nan,nan,residential,87.14638540734626,,87.14638540734626,,False,77.62266255037831,12.941053283669207
nan,yes,nan,nan,nan,nan,nan,nan,"[3520007601, 3520007602, 3520007603, 3520007604, 3520007601]",nan,nan,nan,nan,nan,nan,nan,nan,nan,nan,nan,nan,nan,nan,nan,nan,nan,nan,nan,nan,nan,nan,nan,nan,nan,nan,nan,nan,nan,nan,nan,nan,nan,nan,nan,nan,nan,nan,nan,nan,nan,nan,nan,nan,nan,nan,nan,nan,nan,nan,nan,nan,nan,nan,nan,nan,nan,nan,residential,73.0656395967071,,73.0656395967071,,False,77.62272995791037,12.941106565509443
nan,commercial,nan,nan,nan,nan,nan,nan,"[3520027705, 3520027706, 3520027707, 3520027708, 3520027705]",nan,nan,nan,nan,nan,nan,nan,nan,nan,nan,nan,nan,nan,nan,nan,nan,nan,nan,nan,nan,nan,nan,nan,nan,nan,nan,nan,nan,nan,nan,nan,nan,nan,nan,nan,nan,nan,nan,nan,nan,nan,nan,nan,nan,nan,nan,nan,nan,nan,nan,nan,nan,nan,nan,nan,nan,nan,nan,commercial,165.5133762013911,,165.5133762013911,,False,77.62283138393398,12.942189052700531
nan,yes,nan,nan,nan,nan,nan,nan,"[3520027709, 3520027710, 3520027711, 3520027712, 3520027709]",nan,nan,nan,nan,nan,nan,nan,nan,nan,nan,nan,nan,nan,nan,nan,nan,nan,nan,nan,nan,nan,nan,nan,nan,nan,nan,nan,nan,nan,nan,nan,nan,nan,nan,nan,nan,nan,nan,nan,nan,nan,nan,nan,nan,nan,nan,nan,nan,nan,nan,nan,nan,nan,nan,nan,nan,nan,nan,residential,121.09687582959994,,121.09687582959994,,False,77.62290483155722,12.942099415818252
nan,yes,nan,nan,nan,nan,nan,nan,"[3520027713, 3520027714, 3520027715, 3520027716, 3520027713]",nan,nan,nan,nan,nan,nan,nan,nan,nan,nan,nan,nan,nan,nan,nan,nan,nan,nan,nan,nan,nan,nan,nan,nan,nan,nan,nan,nan,nan,nan,nan,nan,nan,nan,nan,nan,nan,nan,nan,nan,nan,nan,nan,nan,nan,nan,nan,nan,nan,nan,nan,nan,nan,nan,nan,nan,nan,nan,residential,80.53347104244216,,80.53347104244216,,False,77.6229632245616,12.942021325349927
nan,yes,nan,nan,nan,nan,nan,nan,"[3520027717, 3520027718, 3520027719, 3520027720, 3520027717]",nan,nan,nan,nan,nan,nan,nan,nan,nan,nan,nan,nan,nan,nan,nan,nan,nan,nan,nan,nan,nan,nan,nan,nan,nan,nan,nan,nan,nan,nan,nan,nan,nan,nan,nan,nan,nan,nan,nan,nan,nan,nan,nan,nan,nan,nan,nan,nan,nan,nan,nan,nan,nan,nan,nan,nan,nan,nan,residential,172.38089755751864,,172.38089755751864,,False,77.62307728763841,12.941954728974775
nan,yes,nan,nan,nan,nan,nan,nan,"[3520027721, 3520027722, 3520027723, 3520027724, 3520027721]",nan,nan,nan,nan,nan,nan,nan,nan,nan,nan,nan,nan,nan,nan,nan,nan,nan,nan,nan,nan,nan,nan,nan,nan,nan,nan,nan,nan,nan,nan,nan,nan,nan,nan,nan,nan,nan,nan,nan,nan,nan,nan,nan,nan,nan,nan,nan,nan,nan,nan,nan,nan,nan,nan,nan,nan,nan,nan,residential,103.51629962270141,,103.51629962270141,,False,77.62315954627688,12.941866141483297
nan,commercial,nan,nan,Shree Durgs Complex,nan,nan,nan,"[3520027725, 3520027726, 3520027727, 3520027728, 3520027725]",nan,nan,nan,nan,nan,nan,nan,nan,nan,nan,nan,nan,nan,nan,nan,nan,nan,nan,nan,nan,nan,nan,nan,nan,nan,nan,nan,nan,nan,nan,nan,nan,nan,nan,nan,nan,nan,nan,nan,nan,nan,nan,nan,nan,nan,nan,nan,nan,nan,nan,nan,nan,nan,nan,nan,nan,nan,nan,commercial,119.59002195978641,,119.59002195978641,,True,77.62324578144629,12.941813335715912
nan,yes,nan,nan,nan,nan,nan,nan,"[3520027729, 3520027730, 3520027731, 3520027732, 3520027729]",nan,nan,nan,nan,nan,nan,nan,nan,nan,nan,nan,nan,nan,nan,nan,nan,nan,nan,nan,nan,nan,nan,nan,nan,nan,nan,nan,nan,nan,nan,nan,nan,nan,nan,nan,nan,nan,nan,nan,nan,nan,nan,nan,nan,nan,nan,nan,nan,nan,nan,nan,nan,nan,nan,nan,nan,nan,nan,residential,218.043146260348,,218.043146260348,,False,77.62333286214518,12.941705117613454
nan,yes,nan,nan,nan,nan,nan,nan,"[3520027733, 3520027734, 3520027735, 3520027736, 3520027733]",nan,nan,nan,nan,nan,nan,nan,nan,nan,nan,nan,nan,nan,nan,nan,nan,nan,nan,nan,nan,nan,nan,nan,nan,nan,nan,nan,nan,nan,nan,nan,nan,nan,nan,nan,nan,nan,nan,nan,nan,nan,nan,nan,nan,nan,nan,nan,nan,nan,nan,nan,nan,nan,nan,nan,nan,nan,nan,residential,242.73059912215922,,242.73059912215922,,False,77.62265063771669,12.942165595597094
nan,yes,nan,nan,nan,nan,nan,nan,"[3520027737, 3520027738, 3520027739, 3520027740, 3520027737]",nan,nan,nan,nan,nan,nan,nan,nan,nan,nan,nan,nan,nan,nan,nan,nan,nan,nan,nan,nan,nan,nan,nan,nan,nan,nan,nan,nan,nan,nan,nan,nan,nan,nan,nan,nan,nan,nan,nan,nan,nan,nan,nan,nan,nan,nan,nan,nan,nan,nan,nan,nan,nan,nan,nan,nan,nan,nan,residential,155.97209303098643,,155.97209303098643,,False,77.6235988,12.942130349999998
nan,yes,nan,nan,nan,nan,nan,nan,"[3524987032, 3524987061, 3524987014, 3524986579, 3524987032]",nan,nan,nan,nan,nan,nan,nan,nan,nan,nan,nan,nan,nan,nan,nan,nan,nan,nan,nan,nan,nan,nan,nan,nan,nan,nan,nan,nan,nan,nan,nan,nan,nan,nan,nan,nan,nan,nan,nan,nan,nan,nan,nan,nan,nan,nan,nan,nan,nan,nan,nan,nan,nan,nan,nan,nan,nan,nan,residential,86.63238482150628,,86.63238482150628,,False,77.6246138332041,12.939722646648377
nan,yes,nan,nan,nan,nan,nan,nan,"[3524987042, 3524987068, 3524987038, 3524987008, 3524987042]",nan,nan,nan,nan,nan,nan,nan,nan,nan,nan,nan,nan,nan,nan,nan,nan,nan,nan,nan,nan,nan,nan,nan,nan,nan,nan,nan,nan,nan,nan,nan,nan,nan,nan,nan,nan,nan,nan,nan,nan,nan,nan,nan,nan,nan,nan,nan,nan,nan,nan,nan,nan,nan,nan,nan,nan,nan,nan,residential,44.14101659340892,,44.14101659340892,,False,77.62447915,12.9397448
nan,yes,nan,nan,nan,nan,nan,nan,"[3524986562, 3524986586, 3524986537, 3524986511, 3524986562]",nan,nan,nan,nan,nan,nan,nan,nan,nan,nan,nan,nan,nan,nan,nan,nan,nan,nan,nan,nan,nan,nan,nan,nan,nan,nan,nan,nan,nan,nan,nan,nan,nan,nan,nan,nan,nan,nan,nan,nan,nan,nan,nan,nan,nan,nan,nan,nan,nan,nan,nan,nan,nan,nan,nan,nan,nan,nan,residential,76.67478281580951,,76.67478281580951,,False,77.62332395000001,12.939627400000003
nan,yes,nan,nan,nan,nan,nan,nan,"[3524982017, 3524981292, 3524981267, 3524981690, 3524982017]",nan,nan,nan,nan,nan,nan,nan,nan,nan,nan,nan,nan,nan,nan,nan,nan,nan,nan,nan,nan,nan,nan,nan,nan,nan,nan,nan,nan,nan,nan,nan,nan,nan,nan,nan,nan,nan,nan,nan,nan,nan,nan,nan,nan,nan,nan,nan,nan,nan,nan,nan,nan,nan,nan,nan,nan,nan,nan,residential,156.19569987746652,,156.19569987746652,,False,77.62667370000001,12.9373567
nan,yes,nan,nan,nan,nan,nan,nan,"[3524987006, 3524987040, 3524986582, 3524986553, 3524987006]",nan,nan,nan,nan,nan,nan,nan,nan,nan,nan,nan,nan,nan,nan,nan,nan,nan,nan,nan,nan,nan,nan,nan,nan,nan,nan,nan,nan,nan,nan,nan,nan,nan,nan,nan,nan,nan,nan,nan,nan,nan,nan,nan,nan,nan,nan,nan,nan,nan,nan,nan,nan,nan,nan,nan,nan,nan,nan,residential,91.29192544093253,,91.29192544093253,,False,77.62276696673497,12.93968325382208
nan,yes,nan,nan,nan,nan,nan,nan,"[3524987933, 3524987949, 3524987914, 3524987899, 3524987933]",nan,nan,nan,nan,nan,nan,nan,nan,nan,nan,nan,nan,nan,nan,nan,nan,nan,nan,nan,nan,nan,nan,nan,nan,nan,nan,nan,nan,nan,nan,nan,nan,nan,nan,nan,nan,nan,nan,nan,nan,nan,nan,nan,nan,nan,nan,nan,nan,nan,nan,nan,nan,nan,nan,nan,nan,nan,nan,residential,79.71629355324443,,79.71629355324443,,False,77.62322740069234,12.940051516457398
nan,yes,nan,nan,nan,nan,nan,nan,"[3524983354, 3524983325, 3524983304, 3524983335, 3524983354]",nan,nan,nan,nan,nan,nan,nan,nan,nan,nan,nan,nan,nan,nan,nan,nan,nan,nan,nan,nan,nan,nan,nan,nan,nan,nan,nan,nan,nan,nan,nan,nan,nan,nan,nan,nan,nan,nan,nan,nan,nan,nan,nan,nan,nan,nan,nan,nan,nan,nan,nan,nan,nan,nan,nan,nan,nan,nan,residential,134.788689793798,,134.788689793798,,False,77.62507165218993,12.938173066233553
nan,yes,nan,nan,nan,nan,nan,nan,"[3524988758, 3524989195, 3524988728, 3524988699, 3524988758]",nan,nan,nan,nan,nan,nan,nan,nan,nan,nan,nan,nan,nan,nan,nan,nan,nan,nan,nan,nan,nan,nan,nan,nan,nan,nan,nan,nan,nan,nan,nan,nan,nan,nan,nan,nan,nan,nan,nan,nan,nan,nan,nan,nan,nan,nan,nan,nan,nan,nan,nan,nan,nan,nan,nan,nan,nan,nan,residential,95.65273090972552,,95.65273090972552,,False,77.6243086,12.940586399999999
nan,detached,nan,nan,nan,nan,nan,nan,"[3524983015, 3524982995, 3524982473, 3524982492, 3524983015]",nan,nan,nan,nan,nan,nan,nan,nan,nan,nan,nan,nan,nan,nan,nan,nan,nan,nan,nan,nan,nan,nan,nan,nan,nan,nan,nan,nan,nan,nan,nan,nan,nan,nan,nan,nan,nan,nan,nan,nan,nan,nan,nan,nan,nan,nan,nan,nan,nan,nan,nan,nan,nan,nan,nan,nan,nan,nan,residential,57.253181036951645,,57.253181036951645,,False,77.62484695000002,12.93779425
nan,yes,nan,nan,nan,nan,nan,nan,"[3524987581, 3524987935, 3524987911, 3524987548, 3524987581]",nan,nan,nan,nan,nan,nan,nan,nan,nan,nan,nan,nan,nan,nan,nan,nan,nan,nan,nan,nan,nan,nan,nan,nan,nan,nan,nan,nan,nan,nan,nan,nan,nan,nan,nan,nan,nan,nan,nan,nan,nan,nan,nan,nan,nan,nan,nan,nan,nan,nan,nan,nan,nan,nan,nan,nan,nan,nan,residential,145.61922850445524,,145.61922850445524,,False,77.62507158540565,12.939991705528442
nan,yes,nan,nan,nan,nan,nan,nan,"[3524987566, 3524987896, 3524987543, 3524987517, 3524987566]",nan,nan,nan,nan,nan,nan,nan,nan,nan,nan,nan,nan,nan,nan,nan,nan,nan,nan,nan,nan,nan,nan,nan,nan,nan,nan,nan,nan,nan,nan,nan,nan,nan,nan,nan,nan,nan,nan,nan,nan,nan,nan,nan,nan,nan,nan,nan,nan,nan,nan,nan,nan,nan,nan,nan,nan,nan,nan,residential,86.04417161691109,,86.04417161691109,,False,77.62419994962696,12.93992046676661
nan,yes,nan,nan,nan,nan,nan,nan,"[3524983032, 3524982491, 3524982477, 3524983006, 3524983032]",nan,nan,nan,nan,nan,nan,nan,nan,nan,nan,nan,nan,nan,nan,nan,nan,nan,nan,nan,nan,nan,nan,nan,nan,nan,nan,nan,nan,nan,nan,nan,nan,nan,nan,nan,nan,nan,nan,nan,nan,nan,nan,nan,nan,nan,nan,nan,nan,nan,nan,nan,nan,nan,nan,nan,nan,nan,nan,residential,82.8000533109063,,82.8000533109063,,False,77.6254065185808,12.937807370410212
nan,yes,nan,nan,nan,nan,nan,nan,"[3524988362, 3546813150, 3546813148, 3524988341, 3524988362]",nan,nan,nan,nan,nan,nan,nan,nan,nan,nan,nan,nan,nan,nan,nan,nan,nan,nan,nan,nan,nan,nan,nan,nan,nan,nan,nan,nan,nan,nan,nan,nan,nan,nan,nan,nan,nan,nan,nan,nan,nan,nan,nan,nan,nan,nan,nan,nan,nan,nan,nan,nan,nan,nan,nan,nan,nan,nan,residential,172.4514316534198,,172.4514316534198,,False,77.62469154379029,12.940387965688544
nan,yes,nan,nan,nan,nan,nan,nan,"[3524985899, 3524985934, 3524985474, 3524985451, 3524985899]",nan,nan,nan,nan,nan,nan,nan,nan,nan,nan,nan,nan,nan,nan,nan,nan,nan,nan,nan,nan,nan,nan,nan,nan,nan,nan,nan,nan,nan,nan,nan,nan,nan,nan,nan,nan,nan,nan,nan,nan,nan,nan,nan,nan,nan,nan,nan,nan,nan,nan,nan,nan,nan,nan,nan,nan,nan,nan,residential,93.33634926779834,,93.33634926779834,,False,77.62402924999999,12.939383299999996
nan,yes,nan,nan,nan,nan,nan,nan,"[3524985466, 3524985893, 3524985452, 3524985426, 3524985466]",nan,nan,nan,nan,nan,nan,nan,nan,nan,nan,nan,nan,nan,nan,nan,nan,nan,nan,nan,nan,nan,nan,nan,nan,nan,nan,nan,nan,nan,nan,nan,nan,nan,nan,nan,nan,nan,nan,nan,nan,nan,nan,nan,nan,nan,nan,nan,nan,nan,nan,nan,nan,nan,nan,nan,nan,nan,nan,residential,64.10344094879137,,64.10344094879137,,False,77.62461949968063,12.939337216758227
nan,yes,nan,nan,nan,nan,nan,nan,"[3524986567, 3524986587, 3524986540, 3524986521, 3524986567]",nan,nan,nan,nan,nan,nan,nan,nan,nan,nan,nan,nan,nan,nan,nan,nan,nan,nan,nan,nan,nan,nan,nan,nan,nan,nan,nan,nan,nan,nan,nan,nan,nan,nan,nan,nan,nan,nan,nan,nan,nan,nan,nan,nan,nan,nan,nan,nan,nan,nan,nan,nan,nan,nan,nan,nan,nan,nan,residential,65.83825746375126,,65.83825746375126,,False,77.62401044999999,12.93962425
nan,yes,nan,nan,nan,nan,nan,nan,"[3524985488, 3524985909, 3524985465, 3524985445, 3524985488]",nan,nan,nan,nan,nan,nan,nan,nan,nan,nan,nan,nan,nan,nan,nan,nan,nan,nan,nan,nan,nan,nan,nan,nan,nan,nan,nan,nan,nan,nan,nan,nan,nan,nan,nan,nan,nan,nan,nan,nan,nan,nan,nan,nan,nan,nan,nan,nan,nan,nan,nan,nan,nan,nan,nan,nan,nan,nan,residential,64.48039847528014,,64.48039847528014,,False,77.62448976624157,12.939367455106192
nan,yes,nan,nan,nan,nan,nan,nan,"[3524986530, 3524986560, 3524986507, 3524985984, 3524986530]",nan,nan,nan,nan,nan,nan,nan,nan,nan,nan,nan,nan,nan,nan,nan,nan,nan,nan,nan,nan,nan,nan,nan,nan,nan,nan,nan,nan,nan,nan,nan,nan,nan,nan,nan,nan,nan,nan,nan,nan,nan,nan,nan,nan,nan,nan,nan,nan,nan,nan,nan,nan,nan,nan,nan,nan,nan,nan,residential,73.70196306928187,,73.70196306928187,,False,77.62395245,12.939572750000002
nan,yes,nan,nan,nan,nan,nan,nan,"[3524985403, 3524985424, 3524984988, 3524984967, 3524985403]",nan,nan,nan,nan,nan,nan,nan,nan,nan,nan,nan,nan,nan,nan,nan,nan,nan,nan,nan,nan,nan,nan,nan,nan,nan,nan,nan,nan,nan,nan,nan,nan,nan,nan,nan,nan,nan,nan,nan,nan,nan,nan,nan,nan,nan,nan,nan,nan,nan,nan,nan,nan,nan,nan,nan,nan,nan,nan,residential,82.71988695390252,,82.71988695390252,,False,77.6238273505273,12.939224216545258
nan,yes,nan,nan,nan,nan,nan,nan,"[3524987582, 3524987916, 3524987894, 3524987547, 3524987582]",nan,nan,nan,nan,nan,nan,nan,nan,nan,nan,nan,nan,nan,nan,nan,nan,nan,nan,nan,nan,nan,nan,nan,nan,nan,nan,nan,nan,nan,nan,nan,nan,nan,nan,nan,nan,nan,nan,nan,nan,nan,nan,nan,nan,nan,nan,nan,nan,nan,nan,nan,nan,nan,nan,nan,nan,nan,nan,residential,102.94607766679155,,102.94607766679155,,False,77.62488205,12.939973900000002
nan,yes,nan,nan,nan,nan,nan,nan,"[3524984959, 3524984971, 3524984938, 3524984922, 3524984959]",nan,nan,nan,nan,nan,nan,nan,nan,nan,nan,nan,nan,nan,nan,nan,nan,nan,nan,nan,nan,nan,nan,nan,nan,nan,nan,nan,nan,nan,nan,nan,nan,nan,nan,nan,nan,nan,nan,nan,nan,nan,nan,nan,nan,nan,nan,nan,nan,nan,nan,nan,nan,nan,nan,nan,nan,nan,nan,residential,67.48172127545529,,67.48172127545529,,False,77.62370475000002,12.939125650000001
nan,yes,nan,nan,nan,nan,nan,nan,"[3524984945, 3524984969, 3524984940, 3524984916, 3524984945]",nan,nan,nan,nan,nan,nan,nan,nan,nan,nan,nan,nan,nan,nan,nan,nan,nan,nan,nan,nan,nan,nan,nan,nan,nan,nan,nan,nan,nan,nan,nan,nan,nan,nan,nan,nan,nan,nan,nan,nan,nan,nan,nan,nan,nan,nan,nan,nan,nan,nan,nan,nan,nan,nan,nan,nan,nan,nan,residential,81.71402359049799,,81.71402359049799,,False,77.6241486,12.9391265
nan,yes,nan,nan,nan,nan,nan,nan,"[3524984240, 3524984254, 3524984231, 3524984218, 3524984240]",nan,nan,nan,nan,nan,nan,nan,nan,nan,nan,nan,nan,nan,nan,nan,nan,nan,nan,nan,nan,nan,nan,nan,nan,nan,nan,nan,nan,nan,nan,nan,nan,nan,nan,nan,nan,nan,nan,nan,nan,nan,nan,nan,nan,nan,nan,nan,nan,nan,nan,nan,nan,nan,nan,nan,nan,nan,nan,residential,67.8694189325982,,67.8694189325982,,False,77.62390788293479,12.938892963235348
nan,yes,nan,nan,nan,nan,nan,nan,"[3524987531, 3524987568, 3524987518, 3524987080, 3524987531]",nan,nan,nan,nan,nan,nan,nan,nan,nan,nan,nan,nan,nan,nan,nan,nan,nan,nan,nan,nan,nan,nan,nan,nan,nan,nan,nan,nan,nan,nan,nan,nan,nan,nan,nan,nan,nan,nan,nan,nan,nan,nan,nan,nan,nan,nan,nan,nan,nan,nan,nan,nan,nan,nan,nan,nan,nan,nan,residential,107.71128877209725,,107.71128877209725,,False,77.62366634652528,12.939873317076213
nan,yes,nan,nan,nan,nan,nan,nan,"[3524982089, 3524982078, 3524982044, 3524982058, 3524982089]",nan,nan,nan,nan,nan,nan,nan,nan,nan,nan,nan,nan,nan,nan,nan,nan,nan,nan,nan,nan,nan,nan,nan,nan,nan,nan,nan,nan,nan,nan,nan,nan,nan,nan,nan,nan,nan,nan,nan,nan,nan,nan,nan,nan,nan,nan,nan,nan,nan,nan,nan,nan,nan,nan,nan,nan,nan,nan,residential,51.42871363048015,,51.42871363048015,,False,77.62584355000001,12.937544550000004
nan,yes,nan,nan,nan,nan,nan,nan,"[3524986533, 3524986568, 3524986529, 3524986498, 3524986533]",nan,nan,nan,nan,nan,nan,nan,nan,nan,nan,nan,nan,nan,nan,nan,nan,nan,nan,nan,nan,nan,nan,nan,nan,nan,nan,nan,nan,nan,nan,nan,nan,nan,nan,nan,nan,nan,nan,nan,nan,nan,nan,nan,nan,nan,nan,nan,nan,nan,nan,nan,nan,nan,nan,nan,nan,nan,nan,residential,68.98581399439398,,68.98581399439398,,False,77.62345186671608,12.939590350350962
nan,yes,nan,nan,nan,nan,nan,nan,"[3524986501, 3524986528, 3524985977, 3524985950, 3524986501]",nan,nan,nan,nan,nan,nan,nan,nan,nan,nan,nan,nan,nan,nan,nan,nan,nan,nan,nan,nan,nan,nan,nan,nan,nan,nan,nan,nan,nan,nan,nan,nan,nan,nan,nan,nan,nan,nan,nan,nan,nan,nan,nan,nan,nan,nan,nan,nan,nan,nan,nan,nan,nan,nan,nan,nan,nan,nan,residential,73.02379915905786,,73.02379915905786,,False,77.6233942,12.939528300000001
nan,yes,nan,nan,nan,nan,nan,nan,"[3524982027, 3524981683, 3524981640, 3524981684, 3524982027]",nan,nan,nan,nan,nan,nan,nan,nan,nan,nan,nan,nan,nan,nan,nan,nan,nan,nan,nan,nan,nan,nan,nan,nan,nan,nan,nan,nan,nan,nan,nan,nan,nan,nan,nan,nan,nan,nan,nan,nan,nan,nan,nan,nan,nan,nan,nan,nan,nan,nan,nan,nan,nan,nan,nan,nan,nan,nan,residential,86.74370536936287,,86.74370536936287,,False,77.6261164550296,12.937412583288753
nan,yes,nan,nan,nan,nan,nan,nan,"[3524986997, 3524987034, 3524986547, 3524986513, 3524986997]",nan,nan,nan,nan,nan,nan,nan,nan,nan,nan,nan,nan,nan,nan,nan,nan,nan,nan,nan,nan,nan,nan,nan,nan,nan,nan,nan,nan,nan,nan,nan,nan,nan,nan,nan,nan,nan,nan,nan,nan,nan,nan,nan,nan,nan,nan,nan,nan,nan,nan,nan,nan,nan,nan,nan,nan,nan,nan,residential,86.52285076228392,,86.52285076228392,,False,77.62269526690282,12.939625519235209
nan,yes,nan,nan,nan,nan,nan,nan,"[3524980617, 3524980659, 3524980604, 3524980265, 3524980617]",nan,nan,nan,nan,nan,nan,nan,nan,nan,nan,nan,nan,nan,nan,nan,nan,nan,nan,nan,nan,nan,nan,nan,nan,nan,nan,nan,nan,nan,nan,nan,nan,nan,nan,nan,nan,nan,nan,nan,nan,nan,nan,nan,nan,nan,nan,nan,nan,nan,nan,nan,nan,nan,nan,nan,nan,nan,nan,residential,82.45881499207624,,82.45881499207624,,False,77.6258875,12.936925649999997
nan,yes,nan,nan,nan,nan,nan,nan,"[3524989235, 3524989267, 3524989212, 3524988775, 3524989235]",nan,nan,nan,nan,nan,nan,nan,nan,nan,nan,nan,nan,nan,nan,nan,nan,nan,nan,nan,nan,nan,nan,nan,nan,nan,nan,nan,nan,nan,nan,nan,nan,nan,nan,nan,nan,nan,nan,nan,nan,nan,nan,nan,nan,nan,nan,nan,nan,nan,nan,nan,nan,nan,nan,nan,nan,nan,nan,residential,201.2448043139125,,201.2448043139125,,False,77.62378770087052,12.940700433143174
nan,yes,nan,nan,nan,nan,nan,nan,"[3524988776, 3524989222, 3524989205, 3546813156, 3524988754, 3524988776]",nan,nan,nan,nan,nan,nan,nan,nan,nan,nan,nan,nan,nan,nan,nan,nan,nan,nan,nan,nan,nan,nan,nan,nan,nan,nan,nan,nan,nan,nan,nan,nan,nan,nan,nan,nan,nan,nan,nan,nan,nan,nan,nan,nan,nan,nan,nan,nan,nan,nan,nan,nan,nan,nan,nan,nan,nan,nan,residential,140.32430526867034,,140.32430526867034,,False,77.62447025798106,12.940623136973699
nan,yes,nan,nan,nan,nan,nan,nan,"[3524985973, 3524986505, 3524985963, 3524985931, 3524985973]",nan,nan,nan,nan,nan,nan,nan,nan,nan,nan,nan,nan,nan,nan,nan,nan,nan,nan,nan,nan,nan,nan,nan,nan,nan,nan,nan,nan,nan,nan,nan,nan,nan,nan,nan,nan,nan,nan,nan,nan,nan,nan,nan,nan,nan,nan,nan,nan,nan,nan,nan,nan,nan,nan,nan,nan,nan,nan,residential,74.53752668116897,,74.53752668116897,,False,77.62481445,12.93949825
nan,yes,nan,nan,nan,nan,nan,nan,"[3524987509, 3524987537, 3524987084, 3524987054, 3524987509]",nan,nan,nan,nan,nan,nan,nan,nan,nan,nan,nan,nan,nan,nan,nan,nan,nan,nan,nan,nan,nan,nan,nan,nan,nan,nan,nan,nan,nan,nan,nan,nan,nan,nan,nan,nan,nan,nan,nan,nan,nan,nan,nan,nan,nan,nan,nan,nan,nan,nan,nan,nan,nan,nan,nan,nan,nan,nan,residential,97.66223005262,,97.66223005262,,False,77.62426776675512,12.93983230516998
nan,yes,nan,nan,nan,nan,nan,nan,"[3524989211, 3524989229, 3524989197, 3524988782, 3524989211]",nan,nan,nan,nan,nan,nan,nan,nan,nan,nan,nan,nan,nan,nan,nan,nan,nan,nan,nan,nan,nan,nan,nan,nan,nan,nan,nan,nan,nan,nan,nan,nan,nan,nan,nan,nan,nan,nan,nan,nan,nan,nan,nan,nan,nan,nan,nan,nan,nan,nan,nan,nan,nan,nan,nan,nan,nan,nan,residential,58.794238480350096,,58.794238480350096,,False,77.62246378838101,12.940675976258516
nan,yes,nan,nan,nan,nan,nan,nan,"[3524985937, 3524985961, 3524985910, 3524985487, 3524985937]",nan,nan,nan,nan,nan,nan,nan,nan,nan,nan,nan,nan,nan,nan,nan,nan,nan,nan,nan,nan,nan,nan,nan,nan,nan,nan,nan,nan,nan,nan,nan,nan,nan,nan,nan,nan,nan,nan,nan,nan,nan,nan,nan,nan,nan,nan,nan,nan,nan,nan,nan,nan,nan,nan,nan,nan,nan,nan,residential,72.72366777302808,,72.72366777302808,,False,77.62409155,12.9394354
nan,yes,nan,nan,nan,nan,nan,nan,"[3524983332, 3524983345, 3524983328, 3524983317, 3524983332]",nan,nan,nan,nan,nan,nan,nan,nan,nan,nan,nan,nan,nan,nan,nan,nan,nan,nan,nan,nan,nan,nan,nan,nan,nan,nan,nan,nan,nan,nan,nan,nan,nan,nan,nan,nan,nan,nan,nan,nan,nan,nan,nan,nan,nan,nan,nan,nan,nan,nan,nan,nan,nan,nan,nan,nan,nan,nan,residential,144.06844368621057,,144.06844368621057,,False,77.62551565000001,12.93819455
nan,yes,nan,nan,nan,nan,nan,nan,"[3524985964, 3524986496, 3524985947, 3524985912, 3524985964]",nan,nan,nan,nan,nan,nan,nan,nan,nan,nan,nan,nan,nan,nan,nan,nan,nan,nan,nan,nan,nan,nan,nan,nan,nan,nan,nan,nan,nan,nan,nan,nan,nan,nan,nan,nan,nan,nan,nan,nan,nan,nan,nan,nan,nan,nan,nan,nan,nan,nan,nan,nan,nan,nan,nan,nan,nan,nan,residential,73.10892305406324,,73.10892305406324,,False,77.62460465,12.9394795
nan,yes,nan,nan,nan,nan,nan,nan,"[3524988294, 3524988305, 3524987968, 3524987956, 3524988294]",nan,nan,nan,nan,nan,nan,nan,nan,nan,nan,nan,nan,nan,nan,nan,nan,nan,nan,nan,nan,nan,nan,nan,nan,nan,nan,nan,nan,nan,nan,nan,nan,nan,nan,nan,nan,nan,nan,nan,nan,nan,nan,nan,nan,nan,nan,nan,nan,nan,nan,nan,nan,nan,nan,nan,nan,nan,nan,residential,89.43783108264559,,89.43783108264559,,False,77.62418955000001,12.94018365
nan,yes,nan,nan,nan,nan,nan,nan,"[3524983366, 3524983384, 3524983374, 3524983355, 3524983366]",nan,nan,nan,nan,nan,nan,nan,nan,nan,nan,nan,nan,nan,nan,nan,nan,nan,nan,nan,nan,nan,nan,nan,nan,nan,nan,nan,nan,nan,nan,nan,nan,nan,nan,nan,nan,nan,nan,nan,nan,nan,nan,nan,nan,nan,nan,nan,nan,nan,nan,nan,nan,nan,nan,nan,nan,nan,nan,residential,78.19690457744505,,78.19690457744505,,False,77.62523715,12.9383097
nan,yes,nan,nan,nan,nan,nan,nan,"[3524983306, 3524983334, 3524983320, 3524983089, 3524983306]",nan,nan,nan,nan,nan,nan,nan,nan,nan,nan,nan,nan,nan,nan,nan,nan,nan,nan,nan,nan,nan,nan,nan,nan,nan,nan,nan,nan,nan,nan,nan,nan,nan,nan,nan,nan,nan,nan,nan,nan,nan,nan,nan,nan,nan,nan,nan,nan,nan,nan,nan,nan,nan,nan,nan,nan,nan,nan,residential,128.0303673034129,,128.0303673034129,,False,77.62539299999999,12.93811285
nan,yes,nan,nan,nan,nan,nan,nan,"[3524987915, 3524987954, 3524987921, 3524987579, 3524987915]",nan,nan,nan,nan,nan,nan,nan,nan,nan,nan,nan,nan,nan,nan,nan,nan,nan,nan,nan,nan,nan,nan,nan,nan,nan,nan,nan,nan,nan,nan,nan,nan,nan,nan,nan,nan,nan,nan,nan,nan,nan,nan,nan,nan,nan,nan,nan,nan,nan,nan,nan,nan,nan,nan,nan,nan,nan,nan,residential,140.60126489639384,,140.60126489639384,,False,77.62401069999999,12.940038449999998
nan,yes,nan,nan,nan,nan,nan,nan,"[3524983717, 3524983741, 3524983723, 3524983704, 3524983717]",nan,nan,nan,nan,nan,nan,nan,nan,nan,nan,nan,nan,nan,nan,nan,nan,nan,nan,nan,nan,nan,nan,nan,nan,nan,nan,nan,nan,nan,nan,nan,nan,nan,nan,nan,nan,nan,nan,nan,nan,nan,nan,nan,nan,nan,nan,nan,nan,nan,nan,nan,nan,nan,nan,nan,nan,nan,nan,residential,171.22071395750424,,171.22071395750424,,False,77.62354489589242,12.938550734535868
nan,yes,nan,nan,nan,nan,nan,nan,"[3524983057, 3524983026, 3524982487, 3524983018, 3524983057]",nan,nan,nan,nan,nan,nan,nan,nan,nan,nan,nan,nan,nan,nan,nan,nan,nan,nan,nan,nan,nan,nan,nan,nan,nan,nan,nan,nan,nan,nan,nan,nan,nan,nan,nan,nan,nan,nan,nan,nan,nan,nan,nan,nan,nan,nan,nan,nan,nan,nan,nan,nan,nan,nan,nan,nan,nan,nan,residential,117.60933358504163,,117.60933358504163,,False,77.62560135,12.937850200000002
nan,yes,nan,nan,nan,nan,nan,nan,"[3524987559, 3524987577, 3524987532, 3524987504, 3524987559]",nan,nan,nan,nan,nan,nan,nan,nan,nan,nan,nan,nan,nan,nan,nan,nan,nan,nan,nan,nan,nan,nan,nan,nan,nan,nan,nan,nan,nan,nan,nan,nan,nan,nan,nan,nan,nan,nan,nan,nan,nan,nan,nan,nan,nan,nan,nan,nan,nan,nan,nan,nan,nan,nan,nan,nan,nan,nan,residential,89.70608740368792,,89.70608740368792,,False,77.62385013377401,12.939903843969558
nan,yes,nan,nan,nan,nan,nan,nan,"[3524984268, 3524984912, 3524984278, 3524984241, 3524984268]",nan,nan,nan,nan,nan,nan,nan,nan,nan,nan,nan,nan,nan,nan,nan,nan,nan,nan,nan,nan,nan,nan,nan,nan,nan,nan,nan,nan,nan,nan,nan,nan,nan,nan,nan,nan,nan,nan,nan,nan,nan,nan,nan,nan,nan,nan,nan,nan,nan,nan,nan,nan,nan,nan,nan,nan,nan,nan,residential,141.74864580015236,,141.74864580015236,,False,77.62314949999998,12.938973449999999
nan,yes,nan,nan,nan,nan,nan,nan,"[3524985420, 3524985477, 3524985437, 3524984987, 3524985420]",nan,nan,nan,nan,nan,nan,nan,nan,nan,nan,nan,nan,nan,nan,nan,nan,nan,nan,nan,nan,nan,nan,nan,nan,nan,nan,nan,nan,nan,nan,nan,nan,nan,nan,nan,nan,nan,nan,nan,nan,nan,nan,nan,nan,nan,nan,nan,nan,nan,nan,nan,nan,nan,nan,nan,nan,nan,nan,residential,149.10964037833256,,149.10964037833256,,False,77.62283996990732,12.939290130659614
nan,yes,nan,nan,nan,nan,nan,nan,"[3524985441, 3524985485, 3524985455, 3524985410, 3524985441]",nan,nan,nan,nan,nan,nan,nan,nan,nan,nan,nan,nan,nan,nan,nan,nan,nan,nan,nan,nan,nan,nan,nan,nan,nan,nan,nan,nan,nan,nan,nan,nan,nan,nan,nan,nan,nan,nan,nan,nan,nan,nan,nan,nan,nan,nan,nan,nan,nan,nan,nan,nan,nan,nan,nan,nan,nan,nan,residential,88.44670240511145,,88.44670240511145,,False,77.62300324533699,12.939318816029964
nan,yes,nan,nan,nan,nan,nan,nan,"[12875658556, 3524988329, 3524988309, 3524987983, 12875658556]",nan,nan,nan,nan,nan,nan,nan,nan,nan,nan,nan,nan,nan,nan,nan,nan,nan,nan,nan,nan,nan,nan,nan,nan,nan,nan,nan,nan,nan,nan,nan,nan,nan,nan,nan,nan,nan,nan,nan,nan,nan,nan,nan,nan,nan,nan,nan,nan,nan,nan,nan,nan,nan,nan,nan,nan,nan,nan,residential,211.48263594821503,,211.48263594821503,,False,77.62324273323634,12.940270797181128
nan,yes,nan,nan,nan,nan,nan,nan,"[3524979662, 3524979904, 3524979632, 3524979595, 3524979662]",nan,nan,nan,nan,nan,nan,nan,nan,nan,nan,nan,nan,nan,nan,nan,nan,nan,nan,nan,nan,nan,nan,nan,nan,nan,nan,nan,nan,nan,nan,nan,nan,nan,nan,nan,nan,nan,nan,nan,nan,nan,nan,nan,nan,nan,nan,nan,nan,nan,nan,nan,nan,nan,nan,nan,nan,nan,nan,residential,153.89981960474373,,153.89981960474373,,False,77.62577105,12.93656255
nan,yes,nan,nan,nan,nan,nan,nan,"[3524982482, 3524982445, 3524982421, 3524982463, 3524982482]",nan,nan,nan,nan,nan,nan,nan,nan,nan,nan,nan,nan,nan,nan,nan,nan,nan,nan,nan,nan,nan,nan,nan,nan,nan,nan,nan,nan,nan,nan,nan,nan,nan,nan,nan,nan,nan,nan,nan,nan,nan,nan,nan,nan,nan,nan,nan,nan,nan,nan,nan,nan,nan,nan,nan,nan,nan,nan,residential,71.95733670356856,,71.95733670356856,,False,77.62515235000001,12.93770785
nan,commercial,nan,nan,nan,nan,nan,nan,"[3524988739, 3524988779, 3524988706, 3524988379, 3524988739]",nan,nan,nan,nan,nan,nan,nan,nan,nan,nan,nan,nan,nan,nan,nan,nan,nan,nan,nan,nan,nan,nan,nan,nan,nan,nan,nan,nan,nan,nan,nan,nan,nan,nan,nan,nan,nan,nan,nan,nan,nan,nan,nan,nan,nan,nan,nan,nan,nan,nan,nan,nan,nan,nan,nan,nan,nan,nan,commercial,227.06743080542006,,227.06743080542006,,False,77.62356660227204,12.94052731590277
nan,yes,nan,nan,nan,nan,nan,nan,"[3524989242, 3524989261, 3524989230, 3524989208, 3524989242]",nan,nan,nan,nan,nan,nan,nan,nan,nan,nan,nan,nan,nan,nan,nan,nan,nan,nan,nan,nan,nan,nan,nan,nan,nan,nan,nan,nan,nan,nan,nan,nan,nan,nan,nan,nan,nan,nan,nan,nan,nan,nan,nan,nan,nan,nan,nan,nan,nan,nan,nan,nan,nan,nan,nan,nan,nan,nan,residential,77.63794429993158,,77.63794429993158,,False,77.62275980000001,12.94073335
nan,yes,nan,nan,nan,nan,nan,nan,"[3524980844, 3524980679, 3524980639, 3524980808, 3524980844]",nan,nan,nan,nan,nan,nan,nan,nan,nan,nan,nan,nan,nan,nan,nan,nan,nan,nan,nan,nan,nan,nan,nan,nan,nan,nan,nan,nan,nan,nan,nan,nan,nan,nan,nan,nan,nan,nan,nan,nan,nan,nan,nan,nan,nan,nan,nan,nan,nan,nan,nan,nan,nan,nan,nan,nan,nan,nan,residential,123.3120951644236,,123.3120951644236,,False,77.62559065,12.93703025
nan,yes,nan,nan,nan,nan,nan,nan,"[3524982060, 3524982024, 3524981687, 3524982033, 3524982060]",nan,nan,nan,nan,nan,nan,nan,nan,nan,nan,nan,nan,nan,nan,nan,nan,nan,nan,nan,nan,nan,nan,nan,nan,nan,nan,nan,nan,nan,nan,nan,nan,nan,nan,nan,nan,nan,nan,nan,nan,nan,nan,nan,nan,nan,nan,nan,nan,nan,nan,nan,nan,nan,nan,nan,nan,nan,nan,residential,84.5999307951886,,84.5999307951886,,False,77.62555628351484,12.937474897960339
nan,yes,nan,nan,nan,nan,nan,nan,"[3524985942, 3524985974, 3524985915, 3524985483, 3524985942]",nan,nan,nan,nan,nan,nan,nan,nan,nan,nan,nan,nan,nan,nan,nan,nan,nan,nan,nan,nan,nan,nan,nan,nan,nan,nan,nan,nan,nan,nan,nan,nan,nan,nan,nan,nan,nan,nan,nan,nan,nan,nan,nan,nan,nan,nan,nan,nan,nan,nan,nan,nan,nan,nan,nan,nan,nan,nan,residential,102.3769915923135,,102.3769915923135,,False,77.62361279999999,12.93944085
nan,yes,nan,nan,nan,nan,nan,nan,"[3524984992, 3524985412, 3524984980, 3524984963, 3524984992]",nan,nan,nan,nan,nan,nan,nan,nan,nan,nan,nan,nan,nan,nan,nan,nan,nan,nan,nan,nan,nan,nan,nan,nan,nan,nan,nan,nan,nan,nan,nan,nan,nan,nan,nan,nan,nan,nan,nan,nan,nan,nan,nan,nan,nan,nan,nan,nan,nan,nan,nan,nan,nan,nan,nan,nan,nan,nan,residential,68.7343034790936,,68.7343034790936,,False,77.62349329999999,12.93920645
nan,yes,nan,nan,nan,nan,nan,nan,"[3524979554, 3524979135, 3524979096, 3524979509, 3524979554]",nan,nan,nan,nan,nan,nan,nan,nan,nan,nan,nan,nan,nan,nan,nan,nan,nan,nan,nan,nan,nan,nan,nan,nan,nan,nan,nan,nan,nan,nan,nan,nan,nan,nan,nan,nan,nan,nan,nan,nan,nan,nan,nan,nan,nan,nan,nan,nan,nan,nan,nan,nan,nan,nan,nan,nan,nan,nan,residential,175.2536510929927,,175.2536510929927,,False,77.62540009265479,12.936315404370747
nan,yes,nan,nan,nan,nan,nan,nan,"[3524983324, 3524983309, 3524983297, 3524983310, 3524983324]",nan,nan,nan,nan,nan,nan,nan,nan,nan,nan,nan,nan,nan,nan,nan,nan,nan,nan,nan,nan,nan,nan,nan,nan,nan,nan,nan,nan,nan,nan,nan,nan,nan,nan,nan,nan,nan,nan,nan,nan,nan,nan,nan,nan,nan,nan,nan,nan,nan,nan,nan,nan,nan,nan,nan,nan,nan,nan,residential,55.14188872433016,,55.14188872433016,,False,77.62554019999999,12.938110300000002
nan,yes,nan,nan,nan,nan,nan,nan,"[3524987507, 3524987540, 3524987498, 3524987064, 3524987507]",nan,nan,nan,nan,nan,nan,nan,nan,nan,nan,nan,nan,nan,nan,nan,nan,nan,nan,nan,nan,nan,nan,nan,nan,nan,nan,nan,nan,nan,nan,nan,nan,nan,nan,nan,nan,nan,nan,nan,nan,nan,nan,nan,nan,nan,nan,nan,nan,nan,nan,nan,nan,nan,nan,nan,nan,nan,nan,residential,82.50243709958411,,82.50243709958411,,False,77.62473771740198,12.939842335605375
nan,yes,nan,nan,nan,nan,nan,nan,"[3524988319, 3524988345, 3524988330, 3524988297, 3524988319]",nan,nan,nan,nan,nan,nan,nan,nan,nan,nan,nan,nan,nan,nan,nan,nan,nan,nan,nan,nan,nan,nan,nan,nan,nan,nan,nan,nan,nan,nan,nan,nan,nan,nan,nan,nan,nan,nan,nan,nan,nan,nan,nan,nan,nan,nan,nan,nan,nan,nan,nan,nan,nan,nan,nan,nan,nan,nan,residential,80.8669340059543,,80.8669340059543,,False,77.62427310000001,12.94026655
nan,yes,nan,nan,nan,nan,nan,nan,"[3524987017, 3524987039, 3552878465, 3524986581, 3524986565, 3524987017]",nan,nan,nan,nan,nan,nan,nan,nan,nan,nan,nan,nan,nan,nan,nan,nan,nan,nan,nan,nan,nan,nan,nan,nan,nan,nan,nan,nan,nan,nan,nan,nan,nan,nan,nan,nan,nan,nan,nan,nan,nan,nan,nan,nan,nan,nan,nan,nan,nan,nan,nan,nan,nan,nan,nan,nan,nan,nan,residential,100.72709787053755,,100.72709787053755,,False,77.62440599073109,12.939703739279688
nan,yes,nan,nan,nan,nan,nan,nan,"[3524988295, 3524988310, 3524987987, 3524987975, 3524988295]",nan,nan,nan,nan,nan,nan,nan,nan,nan,nan,nan,nan,nan,nan,nan,nan,nan,nan,nan,nan,nan,nan,nan,nan,nan,nan,nan,nan,nan,nan,nan,nan,nan,nan,nan,nan,nan,nan,nan,nan,nan,nan,nan,nan,nan,nan,nan,nan,nan,nan,nan,nan,nan,nan,nan,nan,nan,nan,residential,104.84834797691984,,104.84834797691984,,False,77.62405475,12.940194550000003
nan,yes,nan,nan,nan,nan,nan,nan,"[3524980258, 3524980199, 3524979926, 3524979988, 3524980258]",nan,nan,nan,nan,nan,nan,nan,nan,nan,nan,nan,nan,nan,nan,nan,nan,nan,nan,nan,nan,nan,nan,nan,nan,nan,nan,nan,nan,nan,nan,nan,nan,nan,nan,nan,nan,nan,nan,nan,nan,nan,nan,nan,nan,nan,nan,nan,nan,nan,nan,nan,nan,nan,nan,nan,nan,nan,nan,residential,216.8839683782466,,216.8839683782466,,False,77.62511413346421,12.936768000795356
nan,yes,nan,nan,nan,nan,nan,nan,"[3524986555, 3524986578, 3524986548, 3524986524, 3524986555]",nan,nan,nan,nan,nan,nan,nan,nan,nan,nan,nan,nan,nan,nan,nan,nan,nan,nan,nan,nan,nan,nan,nan,nan,nan,nan,nan,nan,nan,nan,nan,nan,nan,nan,nan,nan,nan,nan,nan,nan,nan,nan,nan,nan,nan,nan,nan,nan,nan,nan,nan,nan,nan,nan,nan,nan,nan,nan,residential,47.9224560634053,,47.9224560634053,,False,77.62426948314057,12.939619398945377
nan,yes,nan,nan,nan,nan,nan,nan,"[3524984290, 3524984921, 3524984260, 3524984233, 3524984290]",nan,nan,nan,nan,nan,nan,nan,nan,nan,nan,nan,nan,nan,nan,nan,nan,nan,nan,nan,nan,nan,nan,nan,nan,nan,nan,nan,nan,nan,nan,nan,nan,nan,nan,nan,nan,nan,nan,nan,nan,nan,nan,nan,nan,nan,nan,nan,nan,nan,nan,nan,nan,nan,nan,nan,nan,nan,nan,residential,85.77795690083572,,85.77795690083572,,False,77.62330134999999,12.9390146
nan,yes,nan,nan,nan,nan,nan,nan,"[3524980806, 3524980657, 3524980277, 3524980634, 3524980806]",nan,nan,nan,nan,nan,nan,nan,nan,nan,nan,nan,nan,nan,nan,nan,nan,nan,nan,nan,nan,nan,nan,nan,nan,nan,nan,nan,nan,nan,nan,nan,nan,nan,nan,nan,nan,nan,nan,nan,nan,nan,nan,nan,nan,nan,nan,nan,nan,nan,nan,nan,nan,nan,nan,nan,nan,nan,nan,residential,153.80081347633325,,153.80081347633325,,False,77.62515194456824,12.936964865918792
nan,yes,nan,nan,nan,nan,nan,nan,"[3524988313, 3524988326, 3524988296, 3524987978, 3524988313]",nan,nan,nan,nan,nan,nan,nan,nan,nan,nan,nan,nan,nan,nan,nan,nan,nan,nan,nan,nan,nan,nan,nan,nan,nan,nan,nan,nan,nan,nan,nan,nan,nan,nan,nan,nan,nan,nan,nan,nan,nan,nan,nan,nan,nan,nan,nan,nan,nan,nan,nan,nan,nan,nan,nan,nan,nan,nan,residential,66.28196364149173,,66.28196364149173,,False,77.62339534749619,12.9402191340641
nan,yes,nan,nan,nan,nan,nan,nan,"[3524981646, 3524982013, 3524981654, 3524981291, 3524981646]",nan,nan,nan,nan,nan,nan,nan,nan,nan,nan,nan,nan,nan,nan,nan,nan,nan,nan,nan,nan,nan,nan,nan,nan,nan,nan,nan,nan,nan,nan,nan,nan,nan,nan,nan,nan,nan,nan,nan,nan,nan,nan,nan,nan,nan,nan,nan,nan,nan,nan,nan,nan,nan,nan,nan,nan,nan,nan,residential,162.81252515088303,,162.81252515088303,,False,77.62461464261284,12.937372816359044
nan,yes,nan,nan,nan,nan,nan,nan,"[3524988774, 3524988791, 3524988768, 3552878468, 3524988749, 3524988774]",nan,nan,nan,nan,nan,nan,nan,nan,nan,nan,nan,nan,nan,nan,nan,nan,nan,nan,nan,nan,nan,nan,nan,nan,nan,nan,nan,nan,nan,nan,nan,nan,nan,nan,nan,nan,nan,nan,nan,nan,nan,nan,nan,nan,nan,nan,nan,nan,nan,nan,nan,nan,nan,nan,nan,nan,nan,nan,residential,70.51489792093861,,70.51489792093861,,False,77.62289214454321,12.940583778908287
nan,yes,nan,nan,nan,nan,nan,nan,"[3524986996, 3524987066, 3524987012, 3524986538, 3524986996]",nan,nan,nan,nan,nan,nan,nan,nan,nan,nan,nan,nan,nan,nan,nan,nan,nan,nan,nan,nan,nan,nan,nan,nan,nan,nan,nan,nan,nan,nan,nan,nan,nan,nan,nan,nan,nan,nan,nan,nan,nan,nan,nan,nan,nan,nan,nan,nan,nan,nan,nan,nan,nan,nan,nan,nan,nan,nan,residential,205.37363470242087,,205.37363470242087,,False,77.62410780921851,12.939696064487764
nan,yes,nan,nan,nan,nan,nan,nan,"[3524989255, 3524989275, 3524989243, 3524989217, 3524989255]",nan,nan,nan,nan,nan,nan,nan,nan,nan,nan,nan,nan,nan,nan,nan,nan,nan,nan,nan,nan,nan,nan,nan,nan,nan,nan,nan,nan,nan,nan,nan,nan,nan,nan,nan,nan,nan,nan,nan,nan,nan,nan,nan,nan,nan,nan,nan,nan,nan,nan,nan,nan,nan,nan,nan,nan,nan,nan,residential,154.0485786544369,,154.0485786544369,,False,77.62407675,12.9407384
nan,yes,nan,nan,nan,nan,nan,nan,"[3524982489, 3524982460, 3524982428, 3524982469, 3524982489]",nan,nan,nan,nan,nan,nan,nan,nan,nan,nan,nan,nan,nan,nan,nan,nan,nan,nan,nan,nan,nan,nan,nan,nan,nan,nan,nan,nan,nan,nan,nan,nan,nan,nan,nan,nan,nan,nan,nan,nan,nan,nan,nan,nan,nan,nan,nan,nan,nan,nan,nan,nan,nan,nan,nan,nan,nan,nan,residential,96.10587946238246,,96.10587946238246,,False,77.62537075,12.9377279
nan,yes,nan,nan,nan,nan,nan,nan,"[3524986557, 3524986583, 3524986515, 3524985988, 3524986557]",nan,nan,nan,nan,nan,nan,nan,nan,nan,nan,nan,nan,nan,nan,nan,nan,nan,nan,nan,nan,nan,nan,nan,nan,nan,nan,nan,nan,nan,nan,nan,nan,nan,nan,nan,nan,nan,nan,nan,nan,nan,nan,nan,nan,nan,nan,nan,nan,nan,nan,nan,nan,nan,nan,nan,nan,nan,nan,residential,126.47831774929722,,126.47831774929722,,False,77.62381828408682,12.939594743245497
nan,yes,nan,nan,nan,nan,nan,nan,"[3524981622, 3524981239, 3524981199, 3524981282, 3524981622]",nan,nan,nan,nan,nan,nan,nan,nan,nan,nan,nan,nan,nan,nan,nan,nan,nan,nan,nan,nan,nan,nan,nan,nan,nan,nan,nan,nan,nan,nan,nan,nan,nan,nan,nan,nan,nan,nan,nan,nan,nan,nan,nan,nan,nan,nan,nan,nan,nan,nan,nan,nan,nan,nan,nan,nan,nan,nan,residential,138.91613825936997,,138.91613825936997,,False,77.62562780451115,12.937250915311617
nan,yes,nan,nan,nan,nan,nan,nan,"[3524987065, 3524987513, 3524987079, 3524987036, 3524987065]",nan,nan,nan,nan,nan,nan,nan,nan,nan,nan,nan,nan,nan,nan,nan,nan,nan,nan,nan,nan,nan,nan,nan,nan,nan,nan,nan,nan,nan,nan,nan,nan,nan,nan,nan,nan,nan,nan,nan,nan,nan,nan,nan,nan,nan,nan,nan,nan,nan,nan,nan,nan,nan,nan,nan,nan,nan,nan,residential,80.91351185161867,,80.91351185161867,,False,77.62504415630349,12.939796984488211
nan,yes,nan,nan,nan,nan,nan,nan,"[3524984926, 3524984942, 3524984901, 3524984283, 3524984926]",nan,nan,nan,nan,nan,nan,nan,nan,nan,nan,nan,nan,nan,nan,nan,nan,nan,nan,nan,nan,nan,nan,nan,nan,nan,nan,nan,nan,nan,nan,nan,nan,nan,nan,nan,nan,nan,nan,nan,nan,nan,nan,nan,nan,nan,nan,nan,nan,nan,nan,nan,nan,nan,nan,nan,nan,nan,nan,residential,100.85025223789611,,100.85025223789611,,False,77.62365059969777,12.939052166773447
nan,yes,nan,nan,nan,nan,nan,nan,"[3524984249, 3524984269, 3524984243, 3524984223, 3524984249]",nan,nan,nan,nan,nan,nan,nan,nan,nan,nan,nan,nan,nan,nan,nan,nan,nan,nan,nan,nan,nan,nan,nan,nan,nan,nan,nan,nan,nan,nan,nan,nan,nan,nan,nan,nan,nan,nan,nan,nan,nan,nan,nan,nan,nan,nan,nan,nan,nan,nan,nan,nan,nan,nan,nan,nan,nan,nan,residential,81.19750886312036,,81.19750886312036,,False,77.62411545,12.93891045
nan,yes,nan,nan,nan,nan,nan,nan,"[3524985415, 3524985438, 3524985407, 3524984986, 3524985415]",nan,nan,nan,nan,nan,nan,nan,nan,nan,nan,nan,nan,nan,nan,nan,nan,nan,nan,nan,nan,nan,nan,nan,nan,nan,nan,nan,nan,nan,nan,nan,nan,nan,nan,nan,nan,nan,nan,nan,nan,nan,nan,nan,nan,nan,nan,nan,nan,nan,nan,nan,nan,nan,nan,nan,nan,nan,nan,residential,57.37304937225905,,57.37304937225905,,False,77.62355183331132,12.939258498482248
nan,yes,nan,nan,nan,nan,nan,nan,"[3524981250, 3524980877, 3524980830, 3524981202, 3524981250]",nan,nan,nan,nan,nan,nan,nan,nan,nan,nan,nan,nan,nan,nan,nan,nan,nan,nan,nan,nan,nan,nan,nan,nan,nan,nan,nan,nan,nan,nan,nan,nan,nan,nan,nan,nan,nan,nan,nan,nan,nan,nan,nan,nan,nan,nan,nan,nan,nan,nan,nan,nan,nan,nan,nan,nan,nan,nan,residential,157.54647965412158,,157.54647965412158,,False,77.62642505,12.937158499999997
nan,yes,nan,nan,nan,nan,nan,nan,"[3546804807, 3524984209, 3524983790, 3524983766, 3546804807]",nan,nan,nan,nan,nan,nan,nan,nan,nan,nan,nan,nan,nan,nan,nan,nan,nan,nan,nan,nan,nan,nan,nan,nan,nan,nan,nan,nan,nan,nan,nan,nan,nan,nan,nan,nan,nan,nan,nan,nan,nan,nan,nan,nan,nan,nan,nan,nan,nan,nan,nan,nan,nan,nan,nan,nan,nan,nan,residential,120.48102091337769,,120.48102091337769,,False,77.62378043348858,12.938769196193492
nan,yes,nan,nan,nan,nan,nan,nan,"[3524986998, 3524987031, 3524986580, 3524986549, 3524986998]",nan,nan,nan,nan,nan,nan,nan,nan,nan,nan,nan,nan,nan,nan,nan,nan,nan,nan,nan,nan,nan,nan,nan,nan,nan,nan,nan,nan,nan,nan,nan,nan,nan,nan,nan,nan,nan,nan,nan,nan,nan,nan,nan,nan,nan,nan,nan,nan,nan,nan,nan,nan,nan,nan,nan,nan,nan,nan,residential,80.69275867559378,,80.69275867559378,,False,77.62454459866164,12.93967583361425
nan,yes,nan,nan,nan,nan,nan,nan,"[3524985914, 3524985951, 3524985905, 3524985470, 3524985914]",nan,nan,nan,nan,nan,nan,nan,nan,nan,nan,nan,nan,nan,nan,nan,nan,nan,nan,nan,nan,nan,nan,nan,nan,nan,nan,nan,nan,nan,nan,nan,nan,nan,nan,nan,nan,nan,nan,nan,nan,nan,nan,nan,nan,nan,nan,nan,nan,nan,nan,nan,nan,nan,nan,nan,nan,nan,nan,residential,81.35763794212787,,81.35763794212787,,False,77.62328243334566,12.939417447625411
nan,yes,nan,nan,nan,nan,nan,nan,"[3524987050, 3524987072, 3524987018, 3524986994, 3524987050]",nan,nan,nan,nan,nan,nan,nan,nan,nan,nan,nan,nan,nan,nan,nan,nan,nan,nan,nan,nan,nan,nan,nan,nan,nan,nan,nan,nan,nan,nan,nan,nan,nan,nan,nan,nan,nan,nan,nan,nan,nan,nan,nan,nan,nan,nan,nan,nan,nan,nan,nan,nan,nan,nan,nan,nan,nan,nan,residential,69.71868781394878,,69.71868781394878,,False,77.62282855,12.9397379
nan,yes,nan,nan,nan,nan,nan,nan,"[3524980859, 3524980811, 3524980646, 3524980796, 3524980859]",nan,nan,nan,nan,nan,nan,nan,nan,nan,nan,nan,nan,nan,nan,nan,nan,nan,nan,nan,nan,nan,nan,nan,nan,nan,nan,nan,nan,nan,nan,nan,nan,nan,nan,nan,nan,nan,nan,nan,nan,nan,nan,nan,nan,nan,nan,nan,nan,nan,nan,nan,nan,nan,nan,nan,nan,nan,nan,residential,156.78360986447916,,156.78360986447916,,False,77.62508240622678,12.937043783926878
nan,yes,nan,nan,nan,nan,nan,nan,"[3524987952, 3524987973, 3524987936, 3524987917, 3524987952]",nan,nan,nan,nan,nan,nan,nan,nan,nan,nan,nan,nan,nan,nan,nan,nan,nan,nan,nan,nan,nan,nan,nan,nan,nan,nan,nan,nan,nan,nan,nan,nan,nan,nan,nan,nan,nan,nan,nan,nan,nan,nan,nan,nan,nan,nan,nan,nan,nan,nan,nan,nan,nan,nan,nan,nan,nan,nan,residential,77.81151258630213,,77.81151258630213,,False,77.62329374999997,12.94010685
nan,yes,nan,nan,nan,nan,nan,nan,"[3524987972, 3524988293, 3524987962, 3524987944, 3524987972]",nan,nan,nan,nan,nan,nan,nan,nan,nan,nan,nan,nan,nan,nan,nan,nan,nan,nan,nan,nan,nan,nan,nan,nan,nan,nan,nan,nan,nan,nan,nan,nan,nan,nan,nan,nan,nan,nan,nan,nan,nan,nan,nan,nan,nan,nan,nan,nan,nan,nan,nan,nan,nan,nan,nan,nan,nan,nan,residential,69.01190959142825,,69.01190959142825,,False,77.6244422174122,12.940145268869776
nan,yes,nan,nan,nan,nan,nan,nan,"[3524982001, 3524981652, 3524981614, 3524981656, 3524982001]",nan,nan,nan,nan,nan,nan,nan,nan,nan,nan,nan,nan,nan,nan,nan,nan,nan,nan,nan,nan,nan,nan,nan,nan,nan,nan,nan,nan,nan,nan,nan,nan,nan,nan,nan,nan,nan,nan,nan,nan,nan,nan,nan,nan,nan,nan,nan,nan,nan,nan,nan,nan,nan,nan,nan,nan,nan,nan,residential,81.99662482460884,,81.99662482460884,,False,77.62423615319675,12.93737701660514
nan,yes,nan,nan,nan,nan,nan,nan,"[3524987931, 3524987966, 3524987943, 3524987903, 3524987931]",nan,nan,nan,nan,nan,nan,nan,nan,nan,nan,nan,nan,nan,nan,nan,nan,nan,nan,nan,nan,nan,nan,nan,nan,nan,nan,nan,nan,nan,nan,nan,nan,nan,nan,nan,nan,nan,nan,nan,nan,nan,nan,nan,nan,nan,nan,nan,nan,nan,nan,nan,nan,nan,nan,nan,nan,nan,nan,residential,201.54086367437824,,201.54086367437824,,False,77.62499452571986,12.940067433673972
nan,yes,nan,nan,nan,nan,nan,nan,"[3524986500, 3524986531, 3524985979, 3524985946, 3524986500]",nan,nan,nan,nan,nan,nan,nan,nan,nan,nan,nan,nan,nan,nan,nan,nan,nan,nan,nan,nan,nan,nan,nan,nan,nan,nan,nan,nan,nan,nan,nan,nan,nan,nan,nan,nan,nan,nan,nan,nan,nan,nan,nan,nan,nan,nan,nan,nan,nan,nan,nan,nan,nan,nan,nan,nan,nan,nan,residential,90.35668317772414,,90.35668317772414,,False,77.62467493346415,12.939530345968064
nan,yes,nan,nan,nan,nan,nan,nan,"[3524985414, 3524985435, 3524985398, 3524984974, 3524985414]",nan,nan,nan,nan,nan,nan,nan,nan,nan,nan,nan,nan,nan,nan,nan,nan,nan,nan,nan,nan,nan,nan,nan,nan,nan,nan,nan,nan,nan,nan,nan,nan,nan,nan,nan,nan,nan,nan,nan,nan,nan,nan,nan,nan,nan,nan,nan,nan,nan,nan,nan,nan,nan,nan,nan,nan,nan,nan,residential,80.9568303662716,,80.9568303662716,,False,77.62403584903431,12.93924678358781
nan,yes,nan,nan,nan,nan,nan,nan,"[3524985442, 3524985462, 3524985428, 3524985406, 3524985442]",nan,nan,nan,nan,nan,nan,nan,nan,nan,nan,nan,nan,nan,nan,nan,nan,nan,nan,nan,nan,nan,nan,nan,nan,nan,nan,nan,nan,nan,nan,nan,nan,nan,nan,nan,nan,nan,nan,nan,nan,nan,nan,nan,nan,nan,nan,nan,nan,nan,nan,nan,nan,nan,nan,nan,nan,nan,nan,residential,53.63147302132874,,53.63147302132874,,False,77.62455709999999,12.939299999999996
nan,yes,nan,nan,nan,nan,nan,nan,"[3524984954, 3524984976, 3524984951, 3524984925, 3524984954]",nan,nan,nan,nan,nan,nan,nan,nan,nan,nan,nan,nan,nan,nan,nan,nan,nan,nan,nan,nan,nan,nan,nan,nan,nan,nan,nan,nan,nan,nan,nan,nan,nan,nan,nan,nan,nan,nan,nan,nan,nan,nan,nan,nan,nan,nan,nan,nan,nan,nan,nan,nan,nan,nan,nan,nan,nan,nan,residential,99.30750729780569,,99.30750729780569,,False,77.62437474894698,12.939124633632336
nan,yes,nan,nan,nan,nan,nan,nan,"[3524984930, 3524984952, 3524984918, 3524984897, 3524984930]",nan,nan,nan,nan,nan,nan,nan,nan,nan,nan,nan,nan,nan,nan,nan,nan,nan,nan,nan,nan,nan,nan,nan,nan,nan,nan,nan,nan,nan,nan,nan,nan,nan,nan,nan,nan,nan,nan,nan,nan,nan,nan,nan,nan,nan,nan,nan,nan,nan,nan,nan,nan,nan,nan,nan,nan,nan,nan,residential,83.141327191619,,83.141327191619,,False,77.62384995111445,12.93907323310112
nan,yes,nan,nan,nan,nan,nan,nan,"[3524984909, 3524984931, 3524984896, 3524984276, 3524984909]",nan,nan,nan,nan,nan,nan,nan,nan,nan,nan,nan,nan,nan,nan,nan,nan,nan,nan,nan,nan,nan,nan,nan,nan,nan,nan,nan,nan,nan,nan,nan,nan,nan,nan,nan,nan,nan,nan,nan,nan,nan,nan,nan,nan,nan,nan,nan,nan,nan,nan,nan,nan,nan,nan,nan,nan,nan,nan,residential,73.20210754000001,,73.20210754000001,,False,77.62377855000001,12.939029500000002
nan,yes,nan,nan,nan,nan,nan,nan,"[3524983049, 3524983077, 3524983062, 3524983022, 3524983049]",nan,nan,nan,nan,nan,nan,nan,nan,nan,nan,nan,nan,nan,nan,nan,nan,nan,nan,nan,nan,nan,nan,nan,nan,nan,nan,nan,nan,nan,nan,nan,nan,nan,nan,nan,nan,nan,nan,nan,nan,nan,nan,nan,nan,nan,nan,nan,nan,nan,nan,nan,nan,nan,nan,nan,nan,nan,nan,residential,117.76806125340761,,117.76806125340761,,False,77.62553550966726,12.937922735266783
nan,yes,nan,nan,nan,nan,nan,nan,"[3524984924, 3524984941, 3524984908, 3524984292, 3524984924]",nan,nan,nan,nan,nan,nan,nan,nan,nan,nan,nan,nan,nan,nan,nan,nan,nan,nan,nan,nan,nan,nan,nan,nan,nan,nan,nan,nan,nan,nan,nan,nan,nan,nan,nan,nan,nan,nan,nan,nan,nan,nan,nan,nan,nan,nan,nan,nan,nan,nan,nan,nan,nan,nan,nan,nan,nan,nan,residential,69.02899086365004,,69.02899086365004,,False,77.62408880000001,12.939067549999997
nan,yes,nan,nan,nan,nan,nan,nan,"[3524987919, 3524987940, 3524987912, 3524987589, 3524987919]",nan,nan,nan,nan,nan,nan,nan,nan,nan,nan,nan,nan,nan,nan,nan,nan,nan,nan,nan,nan,nan,nan,nan,nan,nan,nan,nan,nan,nan,nan,nan,nan,nan,nan,nan,nan,nan,nan,nan,nan,nan,nan,nan,nan,nan,nan,nan,nan,nan,nan,nan,nan,nan,nan,nan,nan,nan,nan,residential,75.77425953770589,,75.77425953770589,,False,77.6238566,12.940029149999997
nan,yes,nan,nan,nan,nan,nan,nan,"[3524982998, 3524982476, 3524982437, 3524982464, 3524982998]",nan,nan,nan,nan,nan,nan,nan,nan,nan,nan,nan,nan,nan,nan,nan,nan,nan,nan,nan,nan,nan,nan,nan,nan,nan,nan,nan,nan,nan,nan,nan,nan,nan,nan,nan,nan,nan,nan,nan,nan,nan,nan,nan,nan,nan,nan,nan,nan,nan,nan,nan,nan,nan,nan,nan,nan,nan,nan,residential,96.96868273058686,,96.96868273058686,,False,77.62586135000001,12.9377395
nan,yes,nan,nan,nan,nan,nan,nan,"[3524987041, 3524987075, 3524987011, 3524986574, 3524987041]",nan,nan,nan,nan,nan,nan,nan,nan,nan,nan,nan,nan,nan,nan,nan,nan,nan,nan,nan,nan,nan,nan,nan,nan,nan,nan,nan,nan,nan,nan,nan,nan,nan,nan,nan,nan,nan,nan,nan,nan,nan,nan,nan,nan,nan,nan,nan,nan,nan,nan,nan,nan,nan,nan,nan,nan,nan,nan,residential,117.18403165113727,,117.18403165113727,,False,77.6236834839854,12.939725644721104
nan,yes,nan,nan,nan,nan,nan,nan,"[3524984907, 3524984957, 3524984917, 3524984270, 3524984907]",nan,nan,nan,nan,nan,nan,nan,nan,nan,nan,nan,nan,nan,nan,nan,nan,nan,nan,nan,nan,nan,nan,nan,nan,nan,nan,nan,nan,nan,nan,nan,nan,nan,nan,nan,nan,nan,nan,nan,nan,nan,nan,nan,nan,nan,nan,nan,nan,nan,nan,nan,nan,nan,nan,nan,nan,nan,nan,residential,177.013854108515,,177.013854108515,,False,77.62305478369464,12.939052651287108
nan,yes,nan,nan,nan,nan,nan,nan,"[3524986589, 3524987021, 3524986572, 3524986544, 3524986589]",nan,nan,nan,nan,nan,nan,nan,nan,nan,nan,nan,nan,nan,nan,nan,nan,nan,nan,nan,nan,nan,nan,nan,nan,nan,nan,nan,nan,nan,nan,nan,nan,nan,nan,nan,nan,nan,nan,nan,nan,nan,nan,nan,nan,nan,nan,nan,nan,nan,nan,nan,nan,nan,nan,nan,nan,nan,nan,residential,72.30243712164834,,72.30243712164834,,False,77.62338826620396,12.939666154525614
nan,yes,nan,nan,nan,nan,nan,nan,"[3524985960, 3524985991, 3524985952, 3524985923, 3524985960]",nan,nan,nan,nan,nan,nan,nan,nan,nan,nan,nan,nan,nan,nan,nan,nan,nan,nan,nan,nan,nan,nan,nan,nan,nan,nan,nan,nan,nan,nan,nan,nan,nan,nan,nan,nan,nan,nan,nan,nan,nan,nan,nan,nan,nan,nan,nan,nan,nan,nan,nan,nan,nan,nan,nan,nan,nan,nan,residential,53.130021140870085,,53.130021140870085,,False,77.62333919903699,12.939480916783738
nan,yes,nan,nan,nan,nan,nan,nan,"[3524985967, 3524986518, 3524985981, 3524985933, 3524985967]",nan,nan,nan,nan,nan,nan,nan,nan,nan,nan,nan,nan,nan,nan,nan,nan,nan,nan,nan,nan,nan,nan,nan,nan,nan,nan,nan,nan,nan,nan,nan,nan,nan,nan,nan,nan,nan,nan,nan,nan,nan,nan,nan,nan,nan,nan,nan,nan,nan,nan,nan,nan,nan,nan,nan,nan,nan,nan,residential,92.5649932724684,,92.5649932724684,,False,77.62283640429914,12.939506783863227
nan,yes,nan,nan,nan,nan,nan,nan,"[3524987519, 3524987564, 3524987071, 3524987023, 3524987519]",nan,nan,nan,nan,nan,nan,nan,nan,nan,nan,nan,nan,nan,nan,nan,nan,nan,nan,nan,nan,nan,nan,nan,nan,nan,nan,nan,nan,nan,nan,nan,nan,nan,nan,nan,nan,nan,nan,nan,nan,nan,nan,nan,nan,nan,nan,nan,nan,nan,nan,nan,nan,nan,nan,nan,nan,nan,nan,residential,235.04818262441904,,235.04818262441904,,False,77.62267631213662,12.93983009159984
nan,yes,nan,nan,nan,nan,nan,nan,"[3524979974, 3524980219, 3524979930, 3524979893, 3524979974]",nan,nan,nan,nan,nan,nan,nan,nan,nan,nan,nan,nan,nan,nan,nan,nan,nan,nan,nan,nan,nan,nan,nan,nan,nan,nan,nan,nan,nan,nan,nan,nan,nan,nan,nan,nan,nan,nan,nan,nan,nan,nan,nan,nan,nan,nan,nan,nan,nan,nan,nan,nan,nan,nan,nan,nan,nan,nan,residential,185.0379016328991,,185.0379016328991,,False,77.6257957,12.93671355
nan,yes,nan,nan,nan,nan,nan,nan,"[3524983312, 3524983088, 3524983073, 3524983092, 3524983312]",nan,nan,nan,nan,nan,nan,nan,nan,nan,nan,nan,nan,nan,nan,nan,nan,nan,nan,nan,nan,nan,nan,nan,nan,nan,nan,nan,nan,nan,nan,nan,nan,nan,nan,nan,nan,nan,nan,nan,nan,nan,nan,nan,nan,nan,nan,nan,nan,nan,nan,nan,nan,nan,nan,nan,nan,nan,nan,residential,131.9253406786229,,131.9253406786229,,False,77.62516745096737,12.938040683282352
nan,yes,nan,nan,nan,nan,nan,nan,"[3524989271, 3524989287, 3524989250, 3524989227, 3524989271]",nan,nan,nan,nan,nan,nan,nan,nan,nan,nan,nan,nan,nan,nan,nan,nan,nan,nan,nan,nan,nan,nan,nan,nan,nan,nan,nan,nan,nan,nan,nan,nan,nan,nan,nan,nan,nan,nan,nan,nan,nan,nan,nan,nan,nan,nan,nan,nan,nan,nan,nan,nan,nan,nan,nan,nan,nan,nan,residential,130.7153916350751,,130.7153916350751,,False,77.62387123406215,12.94078194349581
nan,yes,nan,nan,nan,nan,nan,nan,"[3524989264, 3524989278, 3524989249, 3524989224, 3524989264]",nan,nan,nan,nan,nan,nan,nan,nan,nan,nan,nan,nan,nan,nan,nan,nan,nan,nan,nan,nan,nan,nan,nan,nan,nan,nan,nan,nan,nan,nan,nan,nan,nan,nan,nan,nan,nan,nan,nan,nan,nan,nan,nan,nan,nan,nan,nan,nan,nan,nan,nan,nan,nan,nan,nan,nan,nan,nan,residential,87.7684593562506,,87.7684593562506,,False,77.6226176,12.940764650000004
nan,yes,nan,nan,nan,nan,nan,nan,"[3524981236, 3524980868, 3524980829, 3524981197, 3524981236]",nan,nan,nan,nan,nan,nan,nan,nan,nan,nan,nan,nan,nan,nan,nan,nan,nan,nan,nan,nan,nan,nan,nan,nan,nan,nan,nan,nan,nan,nan,nan,nan,nan,nan,nan,nan,nan,nan,nan,nan,nan,nan,nan,nan,nan,nan,nan,nan,nan,nan,nan,nan,nan,nan,nan,nan,nan,nan,residential,115.58091827035496,,115.58091827035496,,False,77.62548685000002,12.93714955
nan,yes,nan,nan,nan,nan,nan,nan,"[3524982062, 3524982008, 3524981669, 3524982038, 3524982062]",nan,nan,nan,nan,nan,nan,nan,nan,nan,nan,nan,nan,nan,nan,nan,nan,nan,nan,nan,nan,nan,nan,nan,nan,nan,nan,nan,nan,nan,nan,nan,nan,nan,nan,nan,nan,nan,nan,nan,nan,nan,nan,nan,nan,nan,nan,nan,nan,nan,nan,nan,nan,nan,nan,nan,nan,nan,nan,residential,122.68383602184576,,122.68383602184576,,False,77.62533811513566,12.937464405701936
nan,yes,nan,nan,nan,nan,nan,nan,"[3524986570, 3524986999, 3524986552, 3524986525, 3524986570]",nan,nan,nan,nan,nan,nan,nan,nan,nan,nan,nan,nan,nan,nan,nan,nan,nan,nan,nan,nan,nan,nan,nan,nan,nan,nan,nan,nan,nan,nan,nan,nan,nan,nan,nan,nan,nan,nan,nan,nan,nan,nan,nan,nan,nan,nan,nan,nan,nan,nan,nan,nan,nan,nan,nan,nan,nan,nan,residential,77.35246956120133,,77.35246956120133,,False,77.6248116,12.939633249999998
nan,yes,nan,nan,nan,nan,nan,nan,"[3524985444, 3524985471, 3524985425, 3524985404, 3524985444]",nan,nan,nan,nan,nan,nan,nan,nan,nan,nan,nan,nan,nan,nan,nan,nan,nan,nan,nan,nan,nan,nan,nan,nan,nan,nan,nan,nan,nan,nan,nan,nan,nan,nan,nan,nan,nan,nan,nan,nan,nan,nan,nan,nan,nan,nan,nan,nan,nan,nan,nan,nan,nan,nan,nan,nan,nan,nan,residential,90.02249517004685,,90.02249517004685,,False,77.624096,12.9392994
nan,yes,nan,nan,nan,nan,nan,nan,"[3524983359, 3524983371, 3524983356, 3524983344, 3524983359]",nan,nan,nan,nan,nan,nan,nan,nan,nan,nan,nan,nan,nan,nan,nan,nan,nan,nan,nan,nan,nan,nan,nan,nan,nan,nan,nan,nan,nan,nan,nan,nan,nan,nan,nan,nan,nan,nan,nan,nan,nan,nan,nan,nan,nan,nan,nan,nan,nan,nan,nan,nan,nan,nan,nan,nan,nan,nan,residential,78.84427697486656,,78.84427697486656,,False,77.6252962,12.938260499999997
nan,yes,nan,nan,nan,nan,nan,nan,"[3524983315, 3524983299, 3524983076, 3524983090, 3524983315]",nan,nan,nan,nan,nan,nan,nan,nan,nan,nan,nan,nan,nan,nan,nan,nan,nan,nan,nan,nan,nan,nan,nan,nan,nan,nan,nan,nan,nan,nan,nan,nan,nan,nan,nan,nan,nan,nan,nan,nan,nan,nan,nan,nan,nan,nan,nan,nan,nan,nan,nan,nan,nan,nan,nan,nan,nan,nan,residential,99.2236523076781,,99.2236523076781,,False,77.62544387554208,12.938054268216145
nan,yes,nan,nan,nan,nan,nan,nan,"[3524987947, 3524987963, 3524987937, 3524987918, 3524987947]",nan,nan,nan,nan,nan,nan,nan,nan,nan,nan,nan,nan,nan,nan,nan,nan,nan,nan,nan,nan,nan,nan,nan,nan,nan,nan,nan,nan,nan,nan,nan,nan,nan,nan,nan,nan,nan,nan,nan,nan,nan,nan,nan,nan,nan,nan,nan,nan,nan,nan,nan,nan,nan,nan,nan,nan,nan,nan,residential,64.55209277576505,,64.55209277576505,,False,77.62392010016106,12.940091966631911
nan,yes,nan,nan,nan,nan,nan,nan,"[3524984207, 3524983777, 3524983752, 3524983789, 3524984207]",nan,nan,nan,nan,nan,nan,nan,nan,nan,nan,nan,nan,nan,nan,nan,nan,nan,nan,nan,nan,nan,nan,nan,nan,nan,nan,nan,nan,nan,nan,nan,nan,nan,nan,nan,nan,nan,nan,nan,nan,nan,nan,nan,nan,nan,nan,nan,nan,nan,nan,nan,nan,nan,nan,nan,nan,nan,nan,residential,56.42533170722888,,56.42533170722888,,False,77.62351738473319,12.938773004613479
nan,yes,nan,nan,nan,nan,nan,nan,"[3524984201, 3524984229, 3524984203, 3524983775, 3524984201]",nan,nan,nan,nan,nan,nan,nan,nan,nan,nan,nan,nan,nan,nan,nan,nan,nan,nan,nan,nan,nan,nan,nan,nan,nan,nan,nan,nan,nan,nan,nan,nan,nan,nan,nan,nan,nan,nan,nan,nan,nan,nan,nan,nan,nan,nan,nan,nan,nan,nan,nan,nan,nan,nan,nan,nan,nan,nan,residential,151.37569297687662,,151.37569297687662,,False,77.62331245,12.938793050000001
nan,yes,nan,nan,nan,nan,nan,nan,"[3524987571, 3524987893, 3524987549, 3524987527, 3524987571]",nan,nan,nan,nan,nan,nan,nan,nan,nan,nan,nan,nan,nan,nan,nan,nan,nan,nan,nan,nan,nan,nan,nan,nan,nan,nan,nan,nan,nan,nan,nan,nan,nan,nan,nan,nan,nan,nan,nan,nan,nan,nan,nan,nan,nan,nan,nan,nan,nan,nan,nan,nan,nan,nan,nan,nan,nan,nan,residential,59.62329631317595,,59.62329631317595,,False,77.62373655064795,12.939927316453744
nan,yes,nan,nan,nan,nan,nan,nan,"[3524984943, 3524984978, 3524984929, 3524984894, 3524984943]",nan,nan,nan,nan,nan,nan,nan,nan,nan,nan,nan,nan,nan,nan,nan,nan,nan,nan,nan,nan,nan,nan,nan,nan,nan,nan,nan,nan,nan,nan,nan,nan,nan,nan,nan,nan,nan,nan,nan,nan,nan,nan,nan,nan,nan,nan,nan,nan,nan,nan,nan,nan,nan,nan,nan,nan,nan,nan,residential,90.44441836043043,,90.44441836043043,,False,77.62318644999999,12.9391307
nan,yes,nan,nan,nan,nan,nan,nan,"[3524982043, 3524981679, 3524982018, 3524982070, 3524982043]",nan,nan,nan,nan,nan,nan,nan,nan,nan,nan,nan,nan,nan,nan,nan,nan,nan,nan,nan,nan,nan,nan,nan,nan,nan,nan,nan,nan,nan,nan,nan,nan,nan,nan,nan,nan,nan,nan,nan,nan,nan,nan,nan,nan,nan,nan,nan,nan,nan,nan,nan,nan,nan,nan,nan,nan,nan,nan,residential,124.96771567542314,,124.96771567542314,,False,77.62472845,12.937476550000001
nan,yes,nan,nan,nan,nan,nan,nan,"[3524985473, 3524985924, 3524985490, 3524985446, 3524985473]",nan,nan,nan,nan,nan,nan,nan,nan,nan,nan,nan,nan,nan,nan,nan,nan,nan,nan,nan,nan,nan,nan,nan,nan,nan,nan,nan,nan,nan,nan,nan,nan,nan,nan,nan,nan,nan,nan,nan,nan,nan,nan,nan,nan,nan,nan,nan,nan,nan,nan,nan,nan,nan,nan,nan,nan,nan,nan,residential,86.00404680537048,,86.00404680537048,,False,77.62294516581704,12.939376147382943
nan,yes,nan,nan,nan,nan,nan,nan,"[3524981657, 3524981611, 3524981244, 3524981593, 3524981657]",nan,nan,nan,nan,nan,nan,nan,nan,nan,nan,nan,nan,nan,nan,nan,nan,nan,nan,nan,nan,nan,nan,nan,nan,nan,nan,nan,nan,nan,nan,nan,nan,nan,nan,nan,nan,nan,nan,nan,nan,nan,nan,nan,nan,nan,nan,nan,nan,nan,nan,nan,nan,nan,nan,nan,nan,nan,nan,residential,137.86042364063587,,137.86042364063587,,False,77.62486675,12.93730565
nan,yes,nan,nan,nan,nan,nan,nan,"[3524989228, 3524989248, 3524989196, 3524988777, 3524989228]",nan,nan,nan,nan,nan,nan,nan,nan,nan,nan,nan,nan,nan,nan,nan,nan,nan,nan,nan,nan,nan,nan,nan,nan,nan,nan,nan,nan,nan,nan,nan,nan,nan,nan,nan,nan,nan,nan,nan,nan,nan,nan,nan,nan,nan,nan,nan,nan,nan,nan,nan,nan,nan,nan,nan,nan,nan,nan,residential,100.24618769580158,,100.24618769580158,,False,77.62399195000002,12.940678650000002
nan,yes,nan,nan,nan,nan,nan,nan,"[3524979970, 3524980206, 3524979942, 3524979910, 3524979970]",nan,nan,nan,nan,nan,nan,nan,nan,nan,nan,nan,nan,nan,nan,nan,nan,nan,nan,nan,nan,nan,nan,nan,nan,nan,nan,nan,nan,nan,nan,nan,nan,nan,nan,nan,nan,nan,nan,nan,nan,nan,nan,nan,nan,nan,nan,nan,nan,nan,nan,nan,nan,nan,nan,nan,nan,nan,nan,residential,103.72724086885009,,103.72724086885009,,False,77.62591161587031,12.93671910644626
nan,yes,nan,nan,nan,nan,nan,nan,"[3524988748, 3524988772, 3524988724, 3524988705, 3524988748]",nan,nan,nan,nan,nan,nan,nan,nan,nan,nan,nan,nan,nan,nan,nan,nan,nan,nan,nan,nan,nan,nan,nan,nan,nan,nan,nan,nan,nan,nan,nan,nan,nan,nan,nan,nan,nan,nan,nan,nan,nan,nan,nan,nan,nan,nan,nan,nan,nan,nan,nan,nan,nan,nan,nan,nan,nan,nan,residential,91.29613439743838,,91.29613439743838,,False,77.62283199999999,12.940540799999999
nan,yes,nan,nan,nan,nan,nan,nan,"[3524982444, 3524982403, 3524982082, 3524982420, 3524982444]",nan,nan,nan,nan,nan,nan,nan,nan,nan,nan,nan,nan,nan,nan,nan,nan,nan,nan,nan,nan,nan,nan,nan,nan,nan,nan,nan,nan,nan,nan,nan,nan,nan,nan,nan,nan,nan,nan,nan,nan,nan,nan,nan,nan,nan,nan,nan,nan,nan,nan,nan,nan,nan,nan,nan,nan,nan,nan,residential,76.65811689815791,,76.65811689815791,,False,77.62521986753475,12.93763427190021
17th A3 Main Road,house,nan,nan,538,nan,nan,nan,"[3524982475, 3524982426, 3524982399, 3524982443, 3524982475]",2,nan,nan,nan,nan,nan,nan,nan,nan,nan,nan,nan,nan,nan,nan,nan,nan,nan,nan,nan,nan,nan,nan,nan,nan,nan,nan,nan,nan,nan,nan,nan,nan,nan,nan,nan,nan,nan,nan,nan,nan,nan,nan,nan,nan,nan,nan,nan,nan,nan,nan,nan,nan,nan,nan,nan,nan,nan,residential,120.68050849681819,2.0,241.36101699363638,,True,77.6250531830383,12.93767684664439
nan,yes,nan,nan,nan,nan,nan,nan,"[3524989257, 3552878470, 3524989273, 3524989265, 3524989247, 3524989257]",nan,nan,nan,nan,nan,nan,nan,nan,nan,nan,nan,nan,nan,nan,nan,nan,nan,nan,nan,nan,nan,nan,nan,nan,nan,nan,nan,nan,nan,nan,nan,nan,nan,nan,nan,nan,nan,nan,nan,nan,nan,nan,nan,nan,nan,nan,nan,nan,nan,nan,nan,nan,nan,nan,nan,nan,nan,nan,residential,99.80706045396015,,99.80706045396015,,False,77.62267404404466,12.940823054096281
nan,yes,nan,nan,nan,nan,nan,nan,"[3524985911, 3524985949, 3524985894, 3524985461, 3524985911]",nan,nan,nan,nan,nan,nan,nan,nan,nan,nan,nan,nan,nan,nan,nan,nan,nan,nan,nan,nan,nan,nan,nan,nan,nan,nan,nan,nan,nan,nan,nan,nan,nan,nan,nan,nan,nan,nan,nan,nan,nan,nan,nan,nan,nan,nan,nan,nan,nan,nan,nan,nan,nan,nan,nan,nan,nan,nan,residential,88.00885853526441,,88.00885853526441,,False,77.62374911645045,12.939407604485385
nan,yes,nan,nan,nan,nan,nan,nan,"[3524980884, 3524980809, 3524980669, 3524980848, 3524980884]",nan,nan,nan,nan,nan,nan,nan,nan,nan,nan,nan,nan,nan,nan,nan,nan,nan,nan,nan,nan,nan,nan,nan,nan,nan,nan,nan,nan,nan,nan,nan,nan,nan,nan,nan,nan,nan,nan,nan,nan,nan,nan,nan,nan,nan,nan,nan,nan,nan,nan,nan,nan,nan,nan,nan,nan,nan,nan,residential,121.7923796731886,,121.7923796731886,,False,77.62566819677593,12.937079234590096
nan,yes,nan,nan,nan,nan,nan,nan,"[3524989219, 3524989239, 3524989210, 3524988788, 3524989219]",nan,nan,nan,nan,nan,nan,nan,nan,nan,nan,nan,nan,nan,nan,nan,nan,nan,nan,nan,nan,nan,nan,nan,nan,nan,nan,nan,nan,nan,nan,nan,nan,nan,nan,nan,nan,nan,nan,nan,nan,nan,nan,nan,nan,nan,nan,nan,nan,nan,nan,nan,nan,nan,nan,nan,nan,nan,nan,residential,58.219208949163516,,58.219208949163516,,False,77.62268704878466,12.940681783578846
nan,yes,nan,nan,nan,nan,nan,nan,"[3524981204, 3524980818, 3524980673, 3524980856, 3524981204]",nan,nan,nan,nan,nan,nan,nan,nan,nan,nan,nan,nan,nan,nan,nan,nan,nan,nan,nan,nan,nan,nan,nan,nan,nan,nan,nan,nan,nan,nan,nan,nan,nan,nan,nan,nan,nan,nan,nan,nan,nan,nan,nan,nan,nan,nan,nan,nan,nan,nan,nan,nan,nan,nan,nan,nan,nan,nan,residential,162.3358042024547,,162.3358042024547,,False,77.625421,12.93709145
nan,yes,nan,nan,nan,nan,nan,nan,"[3524982034, 3524981680, 3524981642, 3524982009, 3524982034]",nan,nan,nan,nan,nan,nan,nan,nan,nan,nan,nan,nan,nan,nan,nan,nan,nan,nan,nan,nan,nan,nan,nan,nan,nan,nan,nan,nan,nan,nan,nan,nan,nan,nan,nan,nan,nan,nan,nan,nan,nan,nan,nan,nan,nan,nan,nan,nan,nan,nan,nan,nan,nan,nan,nan,nan,nan,nan,residential,87.59902314748552,,87.59902314748552,,False,77.6254900654397,12.937422755195847
nan,yes,nan,nan,nan,nan,nan,nan,"[3524987013, 3524987055, 3524987003, 3524986563, 3524987013]",nan,nan,nan,nan,nan,nan,nan,nan,nan,nan,nan,nan,nan,nan,nan,nan,nan,nan,nan,nan,nan,nan,nan,nan,nan,nan,nan,nan,nan,nan,nan,nan,nan,nan,nan,nan,nan,nan,nan,nan,nan,nan,nan,nan,nan,nan,nan,nan,nan,nan,nan,nan,nan,nan,nan,nan,nan,nan,residential,105.87041897728268,,105.87041897728268,,False,77.62487399934177,12.939708366738492
nan,yes,nan,nan,nan,nan,nan,nan,"[3524984267, 3524984289, 3524984250, 3524984235, 3524984267]",nan,nan,nan,nan,nan,nan,nan,nan,nan,nan,nan,nan,nan,nan,nan,nan,nan,nan,nan,nan,nan,nan,nan,nan,nan,nan,nan,nan,nan,nan,nan,nan,nan,nan,nan,nan,nan,nan,nan,nan,nan,nan,nan,nan,nan,nan,nan,nan,nan,nan,nan,nan,nan,nan,nan,nan,nan,nan,residential,74.95092481650728,,74.95092481650728,,False,77.62396279999999,12.93895335
nan,yes,nan,nan,nan,nan,nan,nan,"[3524985902, 3524985935, 3524985475, 3524985454, 3524985902]",nan,nan,nan,nan,nan,nan,nan,nan,nan,nan,nan,nan,nan,nan,nan,nan,nan,nan,nan,nan,nan,nan,nan,nan,nan,nan,nan,nan,nan,nan,nan,nan,nan,nan,nan,nan,nan,nan,nan,nan,nan,nan,nan,nan,nan,nan,nan,nan,nan,nan,nan,nan,nan,nan,nan,nan,nan,nan,residential,84.38239306151132,,84.38239306151132,,False,77.62354758420317,12.939386544776667
nan,yes,nan,nan,nan,nan,nan,nan,"[3524984962, 3524984979, 3524984946, 3524984927, 3524984962]",nan,nan,nan,nan,nan,nan,nan,nan,nan,nan,nan,nan,nan,nan,nan,nan,nan,nan,nan,nan,nan,nan,nan,nan,nan,nan,nan,nan,nan,nan,nan,nan,nan,nan,nan,nan,nan,nan,nan,nan,nan,nan,nan,nan,nan,nan,nan,nan,nan,nan,nan,nan,nan,nan,nan,nan,nan,nan,residential,87.22779043051162,,87.22779043051162,,False,77.62342558342257,12.93913649628263
nan,yes,nan,nan,nan,nan,nan,nan,"[3524987562, 3524987588, 3524987554, 3524987522, 3524987562]",nan,nan,nan,nan,nan,nan,nan,nan,nan,nan,nan,nan,nan,nan,nan,nan,nan,nan,nan,nan,nan,nan,nan,nan,nan,nan,nan,nan,nan,nan,nan,nan,nan,nan,nan,nan,nan,nan,nan,nan,nan,nan,nan,nan,nan,nan,nan,nan,nan,nan,nan,nan,nan,nan,nan,nan,nan,nan,residential,58.72099382521773,,58.72099382521773,,False,77.62467993334847,12.939923648146467
nan,yes,nan,nan,nan,nan,nan,nan,"[3524982021, 3524982057, 3524982036, 3524981691, 3524982021]",nan,nan,nan,nan,nan,nan,nan,nan,nan,nan,nan,nan,nan,nan,nan,nan,nan,nan,nan,nan,nan,nan,nan,nan,nan,nan,nan,nan,nan,nan,nan,nan,nan,nan,nan,nan,nan,nan,nan,nan,nan,nan,nan,nan,nan,nan,nan,nan,nan,nan,nan,nan,nan,nan,nan,nan,nan,nan,residential,70.35725110692773,,70.35725110692773,,False,77.62589045,12.93747325
nan,yes,nan,nan,nan,nan,nan,nan,"[3524979980, 3524979928, 3524979677, 3524979924, 3524979980]",nan,nan,nan,nan,nan,nan,nan,nan,nan,nan,nan,nan,nan,nan,nan,nan,nan,nan,nan,nan,nan,nan,nan,nan,nan,nan,nan,nan,nan,nan,nan,nan,nan,nan,nan,nan,nan,nan,nan,nan,nan,nan,nan,nan,nan,nan,nan,nan,nan,nan,nan,nan,nan,nan,nan,nan,nan,nan,residential,150.29619932488126,,150.29619932488126,,False,77.62519298762065,12.936674683860396
nan,yes,nan,nan,nan,nan,nan,nan,"[3524982077, 3524982025, 3524981995, 3524982050, 3524982077]",nan,nan,nan,nan,nan,nan,nan,nan,nan,nan,nan,nan,nan,nan,nan,nan,nan,nan,nan,nan,nan,nan,nan,nan,nan,nan,nan,nan,nan,nan,nan,nan,nan,nan,nan,nan,nan,nan,nan,nan,nan,nan,nan,nan,nan,nan,nan,nan,nan,nan,nan,nan,nan,nan,nan,nan,nan,nan,residential,94.78174996256075,,94.78174996256075,,False,77.62656748443861,12.93749249328677
nan,yes,nan,nan,nan,nan,nan,nan,"[3524980616, 3524980260, 3524980198, 3524980240, 3524980616]",nan,nan,nan,nan,nan,nan,nan,nan,nan,nan,nan,nan,nan,nan,nan,nan,nan,nan,nan,nan,nan,nan,nan,nan,nan,nan,nan,nan,nan,nan,nan,nan,nan,nan,nan,nan,nan,nan,nan,nan,nan,nan,nan,nan,nan,nan,nan,nan,nan,nan,nan,nan,nan,nan,nan,nan,nan,nan,residential,152.72820138488413,,152.72820138488413,,False,77.62503215,12.936851100000002
nan,yes,nan,nan,nan,nan,nan,nan,"[3524988325, 3524988340, 3524988321, 3524988301, 3524988325]",nan,nan,nan,nan,nan,nan,nan,nan,nan,nan,nan,nan,nan,nan,nan,nan,nan,nan,nan,nan,nan,nan,nan,nan,nan,nan,nan,nan,nan,nan,nan,nan,nan,nan,nan,nan,nan,nan,nan,nan,nan,nan,nan,nan,nan,nan,nan,nan,nan,nan,nan,nan,nan,nan,nan,nan,nan,nan,residential,52.166425810639,,52.166425810639,,False,77.62347056588287,12.940262587002216
nan,yes,nan,nan,nan,nan,nan,nan,"[3524988386, 3524988703, 3524988375, 3524988359, 3524988386]",nan,nan,nan,nan,nan,nan,nan,nan,nan,nan,nan,nan,nan,nan,nan,nan,nan,nan,nan,nan,nan,nan,nan,nan,nan,nan,nan,nan,nan,nan,nan,nan,nan,nan,nan,nan,nan,nan,nan,nan,nan,nan,nan,nan,nan,nan,nan,nan,nan,nan,nan,nan,nan,nan,nan,nan,nan,nan,residential,72.1050836228108,,72.1050836228108,,False,77.62366859951372,12.940416316769346
nan,yes,nan,nan,nan,nan,nan,nan,"[3524987576, 3524987905, 3524987556, 3524987521, 3524987576]",nan,nan,nan,nan,nan,nan,nan,nan,nan,nan,nan,nan,nan,nan,nan,nan,nan,nan,nan,nan,nan,nan,nan,nan,nan,nan,nan,nan,nan,nan,nan,nan,nan,nan,nan,nan,nan,nan,nan,nan,nan,nan,nan,nan,nan,nan,nan,nan,nan,nan,nan,nan,nan,nan,nan,nan,nan,nan,residential,103.25911158420674,,103.25911158420674,,False,77.62440195,12.93993995
nan,yes,nan,nan,nan,nan,nan,nan,"[3524988764, 3524989193, 3524988744, 3524988719, 3524988764]",nan,nan,nan,nan,nan,nan,nan,nan,nan,nan,nan,nan,nan,nan,nan,nan,nan,nan,nan,nan,nan,nan,nan,nan,nan,nan,nan,nan,nan,nan,nan,nan,nan,nan,nan,nan,nan,nan,nan,nan,nan,nan,nan,nan,nan,nan,nan,nan,nan,nan,nan,nan,nan,nan,nan,nan,nan,nan,residential,112.31964682411056,,112.31964682411056,,False,77.62386375,12.94057595
nan,yes,nan,nan,nan,nan,nan,nan,"[3524988334, 3524988366, 3524988344, 3524988316, 3524988334]",nan,nan,nan,nan,nan,nan,nan,nan,nan,nan,nan,nan,nan,nan,nan,nan,nan,nan,nan,nan,nan,nan,nan,nan,nan,nan,nan,nan,nan,nan,nan,nan,nan,nan,nan,nan,nan,nan,nan,nan,nan,nan,nan,nan,nan,nan,nan,nan,nan,nan,nan,nan,nan,nan,nan,nan,nan,nan,residential,98.41919516136912,,98.41919516136912,,False,77.62473690754713,12.940310084995437
nan,yes,nan,nan,nan,nan,nan,nan,"[3524987499, 3524987533, 3524987078, 3524987047, 3524987499]",nan,nan,nan,nan,nan,nan,nan,nan,nan,nan,nan,nan,nan,nan,nan,nan,nan,nan,nan,nan,nan,nan,nan,nan,nan,nan,nan,nan,nan,nan,nan,nan,nan,nan,nan,nan,nan,nan,nan,nan,nan,nan,nan,nan,nan,nan,nan,nan,nan,nan,nan,nan,nan,nan,nan,nan,nan,nan,residential,106.2636859950915,,106.2636859950915,,False,77.62407381789362,12.939820120348793
nan,yes,nan,nan,nan,nan,nan,nan,"[3524988324, 3524988353, 3524988336, 3524988304, 3524988324]",nan,nan,nan,nan,nan,nan,nan,nan,nan,nan,nan,nan,nan,nan,nan,nan,nan,nan,nan,nan,nan,nan,nan,nan,nan,nan,nan,nan,nan,nan,nan,nan,nan,nan,nan,nan,nan,nan,nan,nan,nan,nan,nan,nan,nan,nan,nan,nan,nan,nan,nan,nan,nan,nan,nan,nan,nan,nan,residential,89.11844457910175,,89.11844457910175,,False,77.62458935699048,12.940285534800537
nan,yes,nan,nan,nan,nan,nan,nan,"[3524985427, 3524985456, 3524985413, 3524985393, 3524985427]",nan,nan,nan,nan,nan,nan,nan,nan,nan,nan,nan,nan,nan,nan,nan,nan,nan,nan,nan,nan,nan,nan,nan,nan,nan,nan,nan,nan,nan,nan,nan,nan,nan,nan,nan,nan,nan,nan,nan,nan,nan,nan,nan,nan,nan,nan,nan,nan,nan,nan,nan,nan,nan,nan,nan,nan,nan,nan,residential,81.01359399780469,,81.01359399780469,,False,77.62389389999998,12.93927455
nan,yes,nan,nan,nan,nan,nan,nan,"[3524982422, 3524982072, 3524982049, 3524982402, 3524982422]",nan,nan,nan,nan,nan,nan,nan,nan,nan,nan,nan,nan,nan,nan,nan,nan,nan,nan,nan,nan,nan,nan,nan,nan,nan,nan,nan,nan,nan,nan,nan,nan,nan,nan,nan,nan,nan,nan,nan,nan,nan,nan,nan,nan,nan,nan,nan,nan,nan,nan,nan,nan,nan,nan,nan,nan,nan,nan,residential,103.92520569416716,,103.92520569416716,,False,77.62515725000002,12.937583400000001
nan,yes,nan,nan,nan,nan,nan,nan,"[3524987946, 3524987981, 3524987955, 3524987926, 3524987946]",nan,nan,nan,nan,nan,nan,nan,nan,nan,nan,nan,nan,nan,nan,nan,nan,nan,nan,nan,nan,nan,nan,nan,nan,nan,nan,nan,nan,nan,nan,nan,nan,nan,nan,nan,nan,nan,nan,nan,nan,nan,nan,nan,nan,nan,nan,nan,nan,nan,nan,nan,nan,nan,nan,nan,nan,nan,nan,residential,89.10476508256521,,89.10476508256521,,False,77.62474603437727,12.940111202535867
nan,yes,nan,nan,nan,nan,nan,nan,"[3524984972, 3524985397, 3524984961, 3524984939, 3524984972]",nan,nan,nan,nan,nan,nan,nan,nan,nan,nan,nan,nan,nan,nan,nan,nan,nan,nan,nan,nan,nan,nan,nan,nan,nan,nan,nan,nan,nan,nan,nan,nan,nan,nan,nan,nan,nan,nan,nan,nan,nan,nan,nan,nan,nan,nan,nan,nan,nan,nan,nan,nan,nan,nan,nan,nan,nan,nan,residential,81.86137312292131,,81.86137312292131,,False,77.624224433342,12.939169194889118
nan,yes,nan,nan,nan,nan,nan,nan,"[3524986523, 3524986550, 3524985966, 3524985939, 3524986523]",nan,nan,nan,nan,nan,nan,nan,nan,nan,nan,nan,nan,nan,nan,nan,nan,nan,nan,nan,nan,nan,nan,nan,nan,nan,nan,nan,nan,nan,nan,nan,nan,nan,nan,nan,nan,nan,nan,nan,nan,nan,nan,nan,nan,nan,nan,nan,nan,nan,nan,nan,nan,nan,nan,nan,nan,nan,nan,residential,137.0246207315758,,137.0246207315758,,False,77.6237530642996,12.939535809571664
nan,yes,nan,nan,nan,nan,nan,nan,"[3524987053, 3524987076, 3524987030, 3524987005, 3524987053]",nan,nan,nan,nan,nan,nan,nan,nan,nan,nan,nan,nan,nan,nan,nan,nan,nan,nan,nan,nan,nan,nan,nan,nan,nan,nan,nan,nan,nan,nan,nan,nan,nan,nan,nan,nan,nan,nan,nan,nan,nan,nan,nan,nan,nan,nan,nan,nan,nan,nan,nan,nan,nan,nan,nan,nan,nan,nan,residential,106.87343585119895,,106.87343585119895,,False,77.6251079,12.9397352
nan,yes,nan,nan,nan,nan,nan,nan,"[3524984895, 3524984914, 3524984279, 3524984255, 3524984895]",nan,nan,nan,nan,nan,nan,nan,nan,nan,nan,nan,nan,nan,nan,nan,nan,nan,nan,nan,nan,nan,nan,nan,nan,nan,nan,nan,nan,nan,nan,nan,nan,nan,nan,nan,nan,nan,nan,nan,nan,nan,nan,nan,nan,nan,nan,nan,nan,nan,nan,nan,nan,nan,nan,nan,nan,nan,nan,residential,74.74065429727703,,74.74065429727703,,False,77.6235699171183,12.938994504039016
nan,yes,nan,nan,nan,nan,nan,nan,"[3524984893, 3524984910, 3524984274, 3524984251, 3524984893]",nan,nan,nan,nan,nan,nan,nan,nan,nan,nan,nan,nan,nan,nan,nan,nan,nan,nan,nan,nan,nan,nan,nan,nan,nan,nan,nan,nan,nan,nan,nan,nan,nan,nan,nan,nan,nan,nan,nan,nan,nan,nan,nan,nan,nan,nan,nan,nan,nan,nan,nan,nan,nan,nan,nan,nan,nan,nan,residential,80.06377170045633,,80.06377170045633,,False,77.62404315197087,12.939002716077264
nan,yes,nan,nan,nan,nan,nan,nan,"[3524984217, 3524984226, 3524984202, 3524983791, 3524984217]",nan,nan,nan,nan,nan,nan,nan,nan,nan,nan,nan,nan,nan,nan,nan,nan,nan,nan,nan,nan,nan,nan,nan,nan,nan,nan,nan,nan,nan,nan,nan,nan,nan,nan,nan,nan,nan,nan,nan,nan,nan,nan,nan,nan,nan,nan,nan,nan,nan,nan,nan,nan,nan,nan,nan,nan,nan,nan,residential,69.44382766622944,,69.44382766622944,,False,77.6239743,12.938807200000001
nan,yes,nan,nan,nan,nan,nan,nan,"[3524985468, 3524985898, 3524985443, 3524985419, 3524985468]",nan,nan,nan,nan,nan,nan,nan,nan,nan,nan,nan,nan,nan,nan,nan,nan,nan,nan,nan,nan,nan,nan,nan,nan,nan,nan,nan,nan,nan,nan,nan,nan,nan,nan,nan,nan,nan,nan,nan,nan,nan,nan,nan,nan,nan,nan,nan,nan,nan,nan,nan,nan,nan,nan,nan,nan,nan,nan,residential,90.74606629431106,,90.74606629431106,,False,77.62348998418783,12.939333694187699
nan,yes,nan,nan,nan,nan,nan,nan,"[3524986573, 3524987004, 3524986564, 3524986534, 3524986573]",nan,nan,nan,nan,nan,nan,nan,nan,nan,nan,nan,nan,nan,nan,nan,nan,nan,nan,nan,nan,nan,nan,nan,nan,nan,nan,nan,nan,nan,nan,nan,nan,nan,nan,nan,nan,nan,nan,nan,nan,nan,nan,nan,nan,nan,nan,nan,nan,nan,nan,nan,nan,nan,nan,nan,nan,nan,nan,residential,62.01086288135303,,62.01086288135303,,False,77.6235219989148,12.939645566841493
nan,yes,nan,nan,nan,nan,nan,nan,"[3524980874, 3524980800, 3524980651, 3524980820, 3524980874]",nan,nan,nan,nan,nan,nan,nan,nan,nan,nan,nan,nan,nan,nan,nan,nan,nan,nan,nan,nan,nan,nan,nan,nan,nan,nan,nan,nan,nan,nan,nan,nan,nan,nan,nan,nan,nan,nan,nan,nan,nan,nan,nan,nan,nan,nan,nan,nan,nan,nan,nan,nan,nan,nan,nan,nan,nan,nan,residential,162.05847052868955,,162.05847052868955,,False,77.6260869,12.937053400000002
nan,yes,nan,nan,nan,nan,nan,nan,"[3524982066, 3524982042, 3524981994, 3524982026, 3524982066]",nan,nan,nan,nan,nan,nan,nan,nan,nan,nan,nan,nan,nan,nan,nan,nan,nan,nan,nan,nan,nan,nan,nan,nan,nan,nan,nan,nan,nan,nan,nan,nan,nan,nan,nan,nan,nan,nan,nan,nan,nan,nan,nan,nan,nan,nan,nan,nan,nan,nan,nan,nan,nan,nan,nan,nan,nan,nan,residential,88.77803959168779,,88.77803959168779,,False,77.62605722460795,12.937483381676529
nan,yes,nan,nan,nan,nan,nan,nan,"[3524982019, 3524981681, 3524981627, 3524981670, 3524982019]",nan,nan,nan,nan,nan,nan,nan,nan,nan,nan,nan,nan,nan,nan,nan,nan,nan,nan,nan,nan,nan,nan,nan,nan,nan,nan,nan,nan,nan,nan,nan,nan,nan,nan,nan,nan,nan,nan,nan,nan,nan,nan,nan,nan,nan,nan,nan,nan,nan,nan,nan,nan,nan,nan,nan,nan,nan,nan,residential,92.76583985350572,,92.76583985350572,,False,77.62596218382352,12.937399201829711
