{"version": 0.6, "generator": "Overpass API 0.7.62.8 e802775f", "osm3s": {"timestamp_osm_base": "2025-09-10T03:46:22Z", "copyright": "The data included in this document is from www.openstreetmap.org. The data is made available under ODbL."}, "elements": [{"type": "node", "id": 303933809, "lat": 12.9365346, "lon": 77.627846, "tags": {"amenity": "bank", "brand": "State Bank of India", "brand:wikidata": "Q1340361", "brand:wikipedia": "en:State Bank of India", "name": "State Bank of India", "name:kn": "\u0cad\u0cbe\u0cb0\u0ca4\u0cc0\u0caf \u0cb8\u0ccd\u0c9f\u0cc7\u0c9f\u0ccd \u0cac\u0ccd\u0caf\u0cbe\u0c82\u0c95\u0ccd", "short_name": "SBI"}}, {"type": "node", "id": 308777848, "lat": 12.9246423, "lon": 77.6283694}, {"type": "node", "id": 308777849, "lat": 12.9254613, "lon": 77.628639}, {"type": "node", "id": 363192526, "lat": 12.9395753, "lon": 77.6252077}, {"type": "node", "id": 363198269, "lat": 12.9404576, "lon": 77.6204303}, {"type": "node", "id": 363198271, "lat": 12.9407859, "lon": 77.6206691}, {"type": "node", "id": 363198272, "lat": 12.9411707, "lon": 77.621124}, {"type": "node", "id": 363198274, "lat": 12.940811, "lon": 77.6214759}, {"type": "node", "id": 363198276, "lat": 12.9400997, "lon": 77.6207791}, {"type": "node", "id": 443224617, "lat": 12.9411467, "lon": 77.6243922}, {"type": "node", "id": 839826450, "lat": 12.9267313, "lon": 77.6346384, "tags": {"amenity": "clinic", "name": "Shilpa Homeopathic Clinic"}}, {"type": "node", "id": 1087884426, "lat": 12.944337, "lon": 77.620028, "tags": {"addr:city": "Bangalore", "addr:housenumber": "3", "addr:postcode": "560095", "name": "Hotel Ganga Sagar", "phone": "+91-80-25704880", "tourism": "hotel"}}, {"type": "node", "id": 1091310741, "lat": 12.9377655, "lon": 77.6267552, "tags": {"addr:street": "80 Feet Road", "amenity": "restaurant", "name": "Gangothri Restaurant", "name:kn": "\u0c97\u0c82\u0c97\u0ccb\u0ca4\u0ccd\u0cb0\u0cbf \u0cb0\u0cc6\u0cb8\u0ccd\u0c9f\u0ccb\u0cb0\u0cc6\u0c82\u0c9f\u0ccd"}}, {"type": "node", "id": 1091310756, "lat": 12.9398542, "lon": 77.6251855, "tags": {"addr:street": "80 Feet Road", "amenity": "restaurant", "brand": "Pizza Hut", "brand:wikidata": "Q191615", "cuisine": "pizza", "name": "Pizza Hut", "name:kn": "\u0caa\u0cbf\u0c9f\u0ccd\u0cb8 \u0cb9\u0c9f\u0ccd"}}, {"type": "node", "id": 1091310761, "lat": 12.9376227, "lon": 77.6269262, "tags": {"addr:street": "Koramangala Inner Ring Road", "amenity": "fast_food", "brand": "Taco Bell", "brand:wikidata": "Q752941", "brand:wikipedia": "en:Taco Bell", "cuisine": "tex-mex", "name": "Taco Bell", "name:kn": "\u0c9f\u0cbe\u0c95\u0cca \u0cac\u0cc6\u0cb2\u0ccd", "takeaway": "yes"}}, {"type": "node", "id": 1274328859, "lat": 12.9372497, "lon": 77.6278433}, {"type": "node", "id": 1274328860, "lat": 12.9372439, "lon": 77.6277661}, {"type": "node", "id": 1274328867, "lat": 12.9378621, "lon": 77.628332}, {"type": "node", "id": 1274328868, "lat": 12.9349444, "lon": 77.6293498, "tags": {"amenity": "cafe", "brand": "Barista", "brand:wikidata": "Q644735", "cuisine": "coffee_shop", "name": "Barista", "name:kn": "\u0cac\u0cb0\u0cbf\u0cb8\u0ccd\u0c9f", "takeaway": "yes"}}, {"type": "node", "id": 1274328876, "lat": 12.9373106, "lon": 77.6280314}, {"type": "node", "id": 1274328878, "lat": 12.9355492, "lon": 77.6287026, "tags": {"amenity": "bar", "name": "Rendezvous"}}, {"type": "node", "id": 1274328890, "lat": 12.9374212, "lon": 77.6275695}, {"type": "node", "id": 1274328893, "lat": 12.9372089, "lon": 77.6277061}, {"type": "node", "id": 1274328898, "lat": 12.9353574, "lon": 77.6293981, "tags": {"name": "Maple's", "tourism": "hotel"}}, {"type": "node", "id": 1274328908, "lat": 12.9375312, "lon": 77.6285859}, {"type": "node", "id": 1274328913, "lat": 12.9375259, "lon": 77.6285418}, {"type": "node", "id": 1274328920, "lat": 12.9373463, "lon": 77.6286539}, {"type": "node", "id": 1328615136, "lat": 12.9362306, "lon": 77.6254307, "tags": {"amenity": "fast_food", "name": "Kota Kachori", "name:kn": "\u0cb6\u0cbe\u0c82\u0ca4\u0cbf \u0cb8\u0cbe\u0c97\u0cb0\u0ccd"}}, {"type": "node", "id": 1328615137, "lat": 12.9370423, "lon": 77.6245906, "tags": {"amenity": "restaurant", "name": "Coast to Coast Sea food restaurant", "name:kn": "\u0c95\u0ccb\u0cb8\u0ccd\u0c9f\u0ccd \u0c9f\u0cc1 \u0c95\u0ccb\u0cb8\u0ccd\u0c9f\u0ccd \u0cb8\u0cc0 \u0cab\u0cc1\u0ca1\u0ccd \u0cb0\u0cc6\u0cb8\u0ccd\u0c9f\u0ccb\u0cb0\u0cc6\u0c82\u0c9f\u0ccd"}}, {"type": "node", "id": 1328615139, "lat": 12.9370998, "lon": 77.6245424, "tags": {"amenity": "restaurant", "name": "Kubey Seafood Restaurant", "name:kn": "\u0c95\u0cc1\u0cac\u0cc6 \u0cb8\u0cc0\u0cab\u0cc1\u0c82\u0ca1\u0ccd \u0cb0\u0cc6\u0cb8\u0ccd\u0c9f\u0ccb\u0cb0\u0cc6\u0c82\u0c9f\u0ccd"}}, {"type": "node", "id": 1368030129, "lat": 12.9404568, "lon": 77.6250388}, {"type": "node", "id": 1368030144, "lat": 12.9404394, "lon": 77.6256166}, {"type": "node", "id": 1463745568, "lat": 12.9372017, "lon": 77.6244522, "tags": {"amenity": "fast_food", "name": "Madurai Idly shop"}}, {"type": "node", "id": 1463831582, "lat": 12.934295, "lon": 77.6300787, "tags": {"amenity": "restaurant", "name": "Maharaja Restaurant", "name:kn": "\u0cae\u0cb9\u0cbe\u0cb0\u0cbe\u0c9c \u0cb0\u0cc6\u0cb8\u0ccd\u0c9f\u0ccb\u0cb0\u0cc6\u0c82\u0c9f\u0ccd"}}, {"type": "node", "id": 1463831750, "lat": 12.9338627, "lon": 77.6304381, "tags": {"amenity": "bank", "brand": "Axis Bank", "brand:wikidata": "Q2003549", "name": "Axis Bank", "name:kn": "\u0c86\u0c95\u0ccd\u0cb8\u0cbf\u0cb8\u0ccd \u0cac\u0ccd\u0caf\u0cbe\u0c82\u0c95\u0ccd", "operator": "Axix"}}, {"type": "node", "id": 1463845802, "lat": 12.9312186, "lon": 77.6342399, "tags": {"amenity": "restaurant"}}, {"type": "node", "id": 1463846154, "lat": 12.9403296, "lon": 77.6252042}, {"type": "node", "id": 1464782313, "lat": 12.9375475, "lon": 77.6279931, "tags": {"addr:street": "Near SonyWorld Signal, Koramangala, Bangalore", "brand": "Lifestyle", "brand:wikidata": "Q6545496", "name": "Lifestyle", "shop": "clothes", "wheelchair": "yes"}}, {"type": "node", "id": 1464782937, "lat": 12.9380019, "lon": 77.62749, "tags": {"addr:street": "near Sony World signal, Koramangala, Bangalore", "brand": "Crom\u0101", "brand:wikidata": "Q5187683", "name": "Crom\u0101", "name:kn": "\u0c95\u0ccd\u0cb0\u0ccb\u0cae", "shop": "electronics"}}, {"type": "node", "id": 1464784180, "lat": 12.9344222, "lon": 77.6240149, "tags": {"addr:street": "Koramangala, Bangalore", "amenity": "bank", "atm": "yes", "brand": "Canara Bank", "brand:en": "Canara Bank", "brand:hi": "\u0915\u0947\u0928\u0930\u093e \u092c\u0948\u0902\u0915", "brand:kn": "\u0c95\u0cc6\u0ca8\u0cb0\u0cbe \u0cac\u0ccd\u0caf\u0cbe\u0c82\u0c95\u0ccd", "brand:pa": "\u0a15\u0a47\u0a28\u0a30\u0a3e \u0a2c\u0a48\u0a02\u0a15", "brand:pnb": "\u06a9\u06cc\u0646\u0631\u0627 \u0628\u06cc\u0646\u06a9", "brand:ur": "\u06a9\u06cc\u0646\u0631\u0627 \u0628\u06cc\u0646\u06a9", "brand:wikidata": "Q2003777", "brand:wikipedia": "en:Canara Bank", "brand:wikipedia:pa": "\u0a15\u0a47\u0a28\u0a30\u0a3e \u0a2c\u0a48\u0a02\u0a15", "name": "Canara Bank", "name:en": "Canara Bank", "name:hi": "\u0915\u0947\u0928\u0930\u093e \u092c\u0948\u0902\u0915", "name:kn": "\u0c95\u0cc6\u0ca8\u0cb0\u0cbe \u0cac\u0ccd\u0caf\u0cbe\u0c82\u0c95\u0ccd", "name:pa": "\u0a15\u0a47\u0a28\u0a30\u0a3e \u0a2c\u0a48\u0a02\u0a15", "name:pnb": "\u06a9\u06cc\u0646\u0631\u0627 \u0628\u06cc\u0646\u06a9", "name:ur": "\u06a9\u06cc\u0646\u0631\u0627 \u0628\u06cc\u0646\u06a9", "website": "https://www.canarabank.com/"}}, {"type": "node", "id": 1464792416, "lat": 12.9352432, "lon": 77.6248678, "tags": {"addr:street": "Koramangala, Bangalore", "name": "Mystique Saloons", "shop": "hairdresser"}}, {"type": "node", "id": 1464792933, "lat": 12.9404971, "lon": 77.6207624, "tags": {"addr:place": "Koramangala", "amenity": "school", "isced:level": "3", "name": "Bethany High School Koramangala", "name:kn": "\u0cac\u0cc6\u0ca5\u0ca8\u0cbf \u0caa\u0ccd\u0cb0\u0ccc\u0ca2\u0cb6\u0cbe\u0cb2\u0cc6 ,\u0c95\u0ccb\u0cb0\u0cae\u0c82\u0c97\u0cb2", "operator": "Private Un-Aided", "school": "Higher Secondary"}}, {"type": "node", "id": 1464885140, "lat": 12.9373048, "lon": 77.6244506, "tags": {"addr:postcode": "560095", "addr:street": "17th b main, 6th block", "amenity": "pharmacy", "brand": "Apollo Pharmacy", "brand:wikidata": "Q62562612", "dispensing": "yes", "healthcare": "pharmacy", "name": "Apollo Pharmacy", "name:kn": "\u0c85\u0caa\u0ccb\u0cb2\u0ccb \u0cab\u0cbe\u0cb0\u0ccd\u0cae\u0cb8\u0cbf"}}, {"type": "node", "id": 1464886374, "lat": 12.9337444, "lon": 77.6301835, "tags": {"name": "Levi's and Nike", "shop": "shoes"}}, {"type": "node", "id": 1464896674, "lat": 12.933506, "lon": 77.6303939, "tags": {"amenity": "fuel", "brand": "Hindustan Petroleum", "brand:wikidata": "Q1619375", "name": "HP Petrol Pump", "official_name": "Hindustan Petroleum"}}, {"type": "node", "id": 1464923222, "lat": 12.9358758, "lon": 77.6259621, "tags": {"addr:street": "Koramangala, Bangalore", "amenity": "bank", "atm": "yes", "name": "Dhanalakshmi Bank", "name:kn": "\u0ca6\u0ca8\u0cb2\u0c95\u0ccd\u0cb7\u0ccd\u0cae\u0cbf \u0cac\u0ccd\u0caf\u0cbe\u0c82\u0c95\u0ccd"}}, {"type": "node", "id": 1464958052, "lat": 12.9376456, "lon": 77.626351, "tags": {"addr:street": "80 Feet Peripheral Rd, Koramangala 6 Block, KoramangalaBengaluru, Karnataka, India", "brand": "Manyavar", "brand:wikidata": "Q24906783", "check_date": "2024-01-10", "name": "Manyavar", "shop": "clothes"}}, {"type": "node", "id": 1465177404, "lat": 12.9373618, "lon": 77.6244338, "tags": {"amenity": "atm", "brand": "HDFC Bank", "brand:wikidata": "Q631047", "fee": "no", "name": "HDFC Bank", "operator": "HDFC Bank", "operator:wikidata": "Q631047", "short_name": "HDFC"}}, {"type": "node", "id": 1466628075, "lat": 12.9449911, "lon": 77.618272, "tags": {"amenity": "bar", "name": "Mookambika Bar& Resturant"}}, {"type": "node", "id": 1466638204, "lat": 12.9423039, "lon": 77.6174893, "tags": {"amenity": "hospital", "healthcare": "hospital", "name": "Srinivasa Nursing Home"}}, {"type": "node", "id": 1466648669, "lat": 12.9422358, "lon": 77.6178071, "tags": {"amenity": "restaurant", "cuisine": "chinese", "name": "Dim Sum", "name:kn": "\u0ca6\u0cbf\u0cae\u0ccd \u0cb8\u0cae\u0ccd"}}, {"type": "node", "id": 1466650618, "lat": 12.9423666, "lon": 77.6174611, "tags": {"amenity": "pharmacy", "brand": "Apollo Pharmacy", "brand:wikidata": "Q62562612", "healthcare": "pharmacy", "name": "Apollo Pharmacy", "name:kn": "\u0c85\u0caa\u0ccb\u0cb2\u0ccb \u0cab\u0cbe\u0cb0\u0ccd\u0cae\u0cb8\u0cbf"}}, {"type": "node", "id": 1468025770, "lat": 12.9373691, "lon": 77.6243143, "tags": {"amenity": "restaurant", "cuisine": "indian", "name": "Bhojohori manna", "name:kn": "\u0cac\u0cca\u0c9c\u0cca\u0cb9\u0cca\u0cb0\u0cbf \u0cae\u0ca8\u0ccd\u0ca8"}}, {"type": "node", "id": 1468025772, "lat": 12.9350683, "lon": 77.6245014, "tags": {"name": "Ooty Chocolates", "shop": "confectionery"}}, {"type": "node", "id": 1468025780, "lat": 12.9373234, "lon": 77.624368, "tags": {"addr:housename": "1st floor", "addr:postcode": "560095", "amenity": "restaurant", "cuisine": "indian", "name": "heritage of Bengal", "name:kn": "\u0cb9\u0cc6\u0cb0\u0cbf\u0c9f\u0cc7\u0c9c\u0ccd \u0c86\u0cab\u0ccd \u0cac\u0cc6\u0c82\u0c97\u0cb2\u0ccd"}}, {"type": "node", "id": 1468025786, "lat": 12.9390944, "lon": 77.6229075, "tags": {"name": "The boutique", "shop": "clothes"}}, {"type": "node", "id": 1468025791, "lat": 12.9368711, "lon": 77.6248696, "tags": {"amenity": "restaurant", "cuisine": "international", "name": "Ocean restaurant", "name:kn": "\u0c92\u0cb7\u0ca8\u0ccd \u0cb0\u0cc6\u0cb8\u0ccd\u0c9f\u0cca\u0cb0\u0cc6\u0c82\u0c9f\u0ccd"}}, {"type": "node", "id": 1468025793, "lat": 12.9397911, "lon": 77.6222423, "tags": {"name": "Aanchal", "shop": "clothes"}}, {"type": "node", "id": 1468516363, "lat": 12.9366613, "lon": 77.6253726, "tags": {"amenity": "atm", "brand": "Indian Bank", "brand:wikidata": "Q2003789", "fee": "no", "name": "Indian Bank", "name:kn": "\u0c87\u0c82\u0ca1\u0cbf\u0caf\u0ca8\u0ccd \u0cac\u0ccd\u0caf\u0cbe\u0c82\u0c95\u0ccd", "operator": "Indian Bank", "operator:wikidata": "Q2003789"}}, {"type": "node", "id": 1468540658, "lat": 12.9377944, "lon": 77.6266966, "tags": {"amenity": "restaurant", "cuisine": "indian", "name": "Chalo Punjab", "name:kn": "\u0c9a\u0cb2\u0cca \u0caa\u0c82\u0c9c\u0cbe\u0cac\u0ccd"}}, {"type": "node", "id": 1468540672, "lat": 12.937648, "lon": 77.6267717, "tags": {"name": "Dreams on wheelz", "shop": "car_repair"}}, {"type": "node", "id": 1468540675, "lat": 12.9382962, "lon": 77.626001, "tags": {"name": "Namdhari's fresh", "shop": "supermarket"}}, {"type": "node", "id": 1468540676, "lat": 12.9361835, "lon": 77.6258638, "tags": {"amenity": "restaurant", "cuisine": "international", "name": "Ambrosia restaurant", "name:kn": "\u0c85\u0c82\u0cac\u0ccd\u0cb0\u0cca\u0cb8\u0cbf\u0caf \u0cb0\u0cc6\u0cb8\u0ccd\u0c9f\u0cca\u0cb0\u0cc6\u0c82\u0c9f\u0ccd"}}, {"type": "node", "id": 1468540684, "lat": 12.9364455, "lon": 77.6255862, "tags": {"name": "OM Stationery and xerox", "shop": "convenience"}}, {"type": "node", "id": 1468540691, "lat": 12.9380577, "lon": 77.6261445, "tags": {"amenity": "restaurant", "cuisine": "ice_cream", "name": "Kwality Walls", "name:kn": "\u0c95\u0ccd\u0cb5\u0cb2\u0cbf\u0c9f\u0cbf \u0cb5\u0cbe\u0cb2\u0ccd\u0cb8\u0ccd"}}, {"type": "node", "id": 1468540703, "lat": 12.9401157, "lon": 77.6250336, "tags": {"amenity": "atm", "brand": "IndusInd Bank", "brand:wikidata": "Q2040323", "check_date": "2021-11-28", "fee": "no", "name": "IndusInd Bank", "operator": "IndusInd Bank", "operator:wikidata": "Q2040323"}}, {"type": "node", "id": 1468540710, "lat": 12.937482, "lon": 77.6265625, "tags": {"name": "Sheelu Flowers", "shop": "florist"}}, {"type": "node", "id": 1468540717, "lat": 12.9362155, "lon": 77.6259241, "tags": {"amenity": "bar", "name": "B52 Bar"}}, {"type": "node", "id": 1468540733, "lat": 12.9402371, "lon": 77.6253403, "tags": {"addr:district": "Bengaluru Urban", "addr:full": "No.897/C, 80 Feet Road, 6th Block, Koramangala", "addr:postcode": "560095", "addr:state": "Karnataka", "addr:subdistrict": "Koramangala", "amenity": "hospital", "emergency": "yes", "healthcare": "hospital", "name": "Vasan Eye Care Hospital, Koramangala", "operator:type": "private", "source": "OpenGovernmentData", "website": "http://www.vasaneye.in/"}}, {"type": "node", "id": 1468540736, "lat": 12.937363, "lon": 77.626659, "tags": {"name": "Brown Tree Super", "shop": "supermarket"}}, {"type": "node", "id": 1468540754, "lat": 12.9367383, "lon": 77.6259938, "tags": {"amenity": "atm", "brand": "Bank of Baroda", "brand:wikidata": "Q2003797", "name": "Bank of Baroda", "name:kn": "\u0cb5\u0cbf\u0c9c\u0caf \u0cac\u0ccd\u0caf\u0cbe\u0c82\u0c95\u0cc1", "operator": "Bank of Baroda", "operator:wikidata": "Q2003797"}}, {"type": "node", "id": 1468540756, "lat": 12.9378271, "lon": 77.6266388, "tags": {"name": "Mahindra showroom", "shop": "car"}}, {"type": "node", "id": 1469643966, "lat": 12.9255307, "lon": 77.6371758, "tags": {"amenity": "bank", "atm": "yes", "brand": "ICICI Bank", "brand:wikidata": "Q1653258", "name": "ICICI Bank", "name:en": "ICICI Bank", "name:kn": "\u0c90\u0cb8\u0cbf\u0c90\u0cb8\u0cbf\u0c90 \u0cac\u0ccd\u0caf\u0cbe\u0c82\u0c95\u0cc1", "short_name": "ICICI", "website": "https://www.icicibank.com"}}, {"type": "node", "id": 1469643995, "lat": 12.9246365, "lon": 77.6384508, "tags": {"amenity": "school", "name": "Kripanidhi Cambridge Public School"}}, {"type": "node", "id": 1470523384, "lat": 12.9416947, "lon": 77.621508, "tags": {"amenity": "restaurant", "cuisine": "international", "name": "Boca Grande", "name:kn": "\u0cac\u0cca\u0c95 \u0c97\u0ccd\u0cb0\u0cbe\u0c82\u0ca1\u0cc6"}}, {"type": "node", "id": 1470523385, "lat": 12.9420162, "lon": 77.6219426, "tags": {"amenity": "bank", "atm": "yes", "brand": "Federal Bank", "brand:wikidata": "Q2044983", "brand:wikipedia": "en:Federal Bank", "name": "Federal Bank", "name:en": "Federal Bank", "website": "https://www.federalbank.co.in"}}, {"type": "node", "id": 1470523395, "lat": 12.9420816, "lon": 77.6220418, "tags": {"designation": "Dealers in Piano", "name": "Theme Piano World", "shop": "music"}}, {"type": "node", "id": 1470765801, "lat": 12.924661, "lon": 77.638669, "tags": {"amenity": "dentist", "name": "Basha Clinic"}}, {"type": "node", "id": 1470856095, "lat": 12.9377559, "lon": 77.6239822, "tags": {"amenity": "bank", "atm": "yes", "brand": "Corporation Bank", "brand:wikidata": "Q2003387", "brand:wikipedia": "en:Corporation Bank", "name": "Corporation Bank", "name:en": "Corporation Bank", "name:kn": "\u0c95\u0cbe\u0cb0\u0ccd\u0caa\u0cb0\u0cc7\u0cb7\u0ca8\u0ccd \u0cac\u0ccd\u0caf\u0cbe\u0c82\u0c95\u0ccd", "website": "https://corpbank.com/"}}, {"type": "node", "id": 1472015388, "lat": 12.927395, "lon": 77.621901, "tags": {"amenity": "bank", "brand": "State Bank of India", "brand:wikidata": "Q1340361", "brand:wikipedia": "en:State Bank of India", "name": "State Bank of India", "name:kn": "\u0c8e\u0cb8\u0ccd \u0cac\u0cbf \u0c90", "short_name": "SBI", "website": "https://www.sbi.co.in"}}, {"type": "node", "id": 1472015890, "lat": 12.9273417, "lon": 77.6221301, "tags": {"amenity": "hospital", "healthcare": "hospital", "name": "Agarwal Eye Hospital"}}, {"type": "node", "id": 1472248473, "lat": 12.9271081, "lon": 77.6226087, "tags": {"amenity": "pharmacy", "dispensing": "Vijayashree Diagnostics", "healthcare": "pharmacy", "name": "Vijaya Shree Diagnostics"}}, {"type": "node", "id": 1472871254, "lat": 12.9322872, "lon": 77.6320394, "tags": {"addr:postcode": "560034", "addr:street": "80 Feet Road", "amenity": "bank", "name": "Unity Small Finance Bank"}}, {"type": "node", "id": 1472874575, "lat": 12.934673, "lon": 77.6276618}, {"type": "node", "id": 1472880357, "lat": 12.924463, "lon": 77.629883}, {"type": "node", "id": 1472880535, "lat": 12.9252403, "lon": 77.6337162, "tags": {"name": "Kanyaka Clothes", "shop": "clothes"}}, {"type": "node", "id": 1473298104, "lat": 12.9243674, "lon": 77.629107}, {"type": "node", "id": 1473308076, "lat": 12.9377532, "lon": 77.6266479, "tags": {"amenity": "pharmacy", "healthcare": "pharmacy", "name": "Himalaya Health care - druggists"}}, {"type": "node", "id": 1473308085, "lat": 12.9375545, "lon": 77.6281177, "tags": {"amenity": "restaurant", "cuisine": "international", "name": "Polynation", "name:kn": "\u0caa\u0cca\u0cb2\u0cbf\u0ca8\u0cc6\u0cb6\u0ca8\u0ccd", "wheelchair": "yes"}}, {"type": "node", "id": 1473308091, "lat": 12.9375258, "lon": 77.6285425, "tags": {"brand": "Max", "brand:wikidata": "Q24939079", "name": "Max", "shop": "clothes"}}, {"type": "node", "id": 1473308100, "lat": 12.9367337, "lon": 77.6249849, "tags": {"name": "Roots Multiclean", "shop": "hifi"}}, {"type": "node", "id": 1473308101, "lat": 12.9373924, "lon": 77.6279943, "tags": {"name": "Home Lifestyle", "shop": "hifi"}}, {"type": "node", "id": 1473308109, "lat": 12.9376735, "lon": 77.6264373, "tags": {"amenity": "restaurant", "cuisine": "indian", "name": "Taste of Bihar", "name:kn": "\u0c9f\u0cc6\u0cb8\u0ccd\u0c9f\u0ccd \u0c86\u0cab\u0ccd \u0cac\u0cbf\u0cb9\u0cbe\u0cb0\u0ccd"}}, {"type": "node", "id": 1473330384, "lat": 12.9426306, "lon": 77.6223732, "tags": {"female": "yes", "male": "yes", "name": "Kolourrs Unisex salon", "shop": "hairdresser"}}, {"type": "node", "id": 1474004437, "lat": 12.9317341, "lon": 77.6228586, "tags": {"addr:street": "Mahayogi Vemana Road", "amenity": "restaurant", "name": "Nandini Andra Style", "name:en": "Nandhana Andra style", "name:kn": "\u0ca8\u0c82\u0ca6\u0cbf\u0ca8\u0cbf \u0c86\u0c82\u0ca6\u0ccd\u0cb0 \u0cb6\u0cc8\u0cb2\u0cbf"}}, {"type": "node", "id": 1474324419, "lat": 12.9372827, "lon": 77.6245142, "tags": {"name": "Sumith Provision & Condiments", "shop": "convenience"}}, {"type": "node", "id": 1474324438, "lat": 12.9374604, "lon": 77.6242714, "tags": {"name": "Crystal Stationeries", "shop": "convenience"}}, {"type": "node", "id": 1476497824, "lat": 12.929769, "lon": 77.6228423}, {"type": "node", "id": 1476497835, "lat": 12.9294112, "lon": 77.6226972}, {"type": "node", "id": 1476497836, "lat": 12.9296752, "lon": 77.6228032}, {"type": "node", "id": 1476497837, "lat": 12.9294375, "lon": 77.6223136}, {"type": "node", "id": 1476497839, "lat": 12.9297716, "lon": 77.6225606}, {"type": "node", "id": 1476497840, "lat": 12.9299274, "lon": 77.6225069}, {"type": "node", "id": 1476497842, "lat": 12.9296662, "lon": 77.6225433}, {"type": "node", "id": 1476497844, "lat": 12.9293179, "lon": 77.6226587}, {"type": "node", "id": 1476499991, "lat": 12.9296514, "lon": 77.6232897}, {"type": "node", "id": 1476499993, "lat": 12.9292727, "lon": 77.6227194}, {"type": "node", "id": 1476499994, "lat": 12.9292177, "lon": 77.6240283}, {"type": "node", "id": 1476499995, "lat": 12.9291369, "lon": 77.6230922}, {"type": "node", "id": 1476499996, "lat": 12.928981, "lon": 77.6237382}, {"type": "node", "id": 1476499997, "lat": 12.928918, "lon": 77.6239171}, {"type": "node", "id": 1476499998, "lat": 12.9294346, "lon": 77.6237479}, {"type": "node", "id": 1476499999, "lat": 12.9288731, "lon": 77.6235395}, {"type": "node", "id": 1476500006, "lat": 12.9292807, "lon": 77.6238494}, {"type": "node", "id": 1476500008, "lat": 12.9287201, "lon": 77.6239735}, {"type": "node", "id": 1476500010, "lat": 12.9297873, "lon": 77.6229168}, {"type": "node", "id": 1476500013, "lat": 12.9292816, "lon": 77.6241819}, {"type": "node", "id": 1615727952, "lat": 12.9311975, "lon": 77.6228542, "tags": {"amenity": "restaurant", "diet:vegetarian": "only", "name": "Utsav", "name:kn": "\u0c89\u0ca4\u0ccd\u0cb8\u0cb5\u0ccd"}}, {"type": "node", "id": 1615735026, "lat": 12.9266971, "lon": 77.6236359, "tags": {"brand": "Nilgiri's", "brand:wikidata": "Q17079567", "name": "Nilgiri's", "name:kn": "\u0ca8\u0cc0\u0cb2\u0ccd\u0c97\u0cbf\u0cb0\u0cbf\u0cb8\u0ccd", "shop": "supermarket"}}, {"type": "node", "id": 1675218268, "lat": 12.9381356, "lon": 77.6277657, "tags": {"amenity": "atm", "brand": "Citibank", "brand:wikidata": "Q857063", "name": "Citibank", "operator": "Citibank", "operator:wikidata": "Q857063", "short_name": "Citi"}}, {"type": "node", "id": 1722528824, "lat": 12.9376941, "lon": 77.6270393, "tags": {"alt_name": "Kentucky Fried Chicken", "alt_name:en": "Kentucky Fried Chicken", "alt_name:hi": "\u0915\u0947\u0902\u091f\u0941\u0915\u0940 \u092b\u094d\u0930\u093e\u0907\u0921 \u091a\u093f\u0915\u0928", "alt_name:pa": "\u0a15\u0a48\u0a02\u0a1f\u0a41\u0a15\u0a40 \u0a2b\u0a4d\u0a30\u0a3e\u0a08\u0a21 \u0a1a\u0a3f\u0a15\u0a28", "alt_name:pnb": "\u06a9\u06cc\u0646\u0679\u06a9\u06cc \u0641\u0631\u0627\u0626\u06cc\u0688 \u0686\u06a9\u0646", "alt_name:ur": "\u06a9\u06cc\u0646\u0679\u06a9\u06cc \u0641\u0631\u0627\u0626\u06cc\u0688 \u0686\u06a9\u0646", "amenity": "fast_food", "brand": "KFC", "brand:en": "KFC", "brand:hi": "\u0915\u0947\u090f\u092b\u0938\u0940", "brand:pa": "\u0a15\u0a47\u0a10\u0a2b\u0a38\u0a40", "brand:pnb": "\u06a9\u06d2 \u0627\u06cc\u0641 \u0633\u06cc", "brand:ur": "\u06a9\u06d2 \u0627\u06cc\u0641 \u0633\u06cc", "brand:wikidata": "Q524757", "brand:wikipedia": "en:KFC", "brand:wikipedia:pa": "\u0a15\u0a47\u0a10\u0a2b\u0a38\u0a40", "brand:wikipedia:ur": "\u06a9\u06cc\u0646\u0679\u06a9\u06cc \u0641\u0631\u0627\u0626\u06cc\u0688 \u0686\u06a9\u0646", "cuisine": "chicken", "name": "KFC", "name:en": "KFC", "name:hi": "\u0915\u0947\u090f\u092b\u0938\u0940", "name:pa": "\u0a15\u0a47\u0a10\u0a2b\u0a38\u0a40", "name:pnb": "\u06a9\u06d2 \u0627\u06cc\u0641 \u0633\u06cc", "name:ur": "\u06a9\u06d2 \u0627\u06cc\u0641 \u0633\u06cc", "takeaway": "yes"}}, {"type": "node", "id": 1744342634, "lat": 12.9365165, "lon": 77.6274121, "tags": {"amenity": "restaurant", "name": "Great Indian Thali", "name:kn": "\u0c97\u0ccd\u0cb0\u0cc7\u0c9f\u0ccd \u0c87\u0c82\u0ca1\u0cbf\u0caf\u0ca8\u0ccd \u0ca4\u0cbe\u0cb2\u0cbf"}}, {"type": "node", "id": 1758627903, "lat": 12.9270853, "lon": 77.6332259}, {"type": "node", "id": 1758627907, "lat": 12.9270597, "lon": 77.6328315}, {"type": "node", "id": 1758627909, "lat": 12.9270456, "lon": 77.6323862}, {"type": "node", "id": 1758627913, "lat": 12.9270695, "lon": 77.632806}, {"type": "node", "id": 1758627917, "lat": 12.9272521, "lon": 77.6323738}, {"type": "node", "id": 1758627919, "lat": 12.927265, "lon": 77.6328175}, {"type": "node", "id": 1758627923, "lat": 12.927276, "lon": 77.6327936}, {"type": "node", "id": 1758627929, "lat": 12.9272906, "lon": 77.6332119}, {"type": "node", "id": 1759942782, "lat": 12.9274081, "lon": 77.6308331}, {"type": "node", "id": 1761893960, "lat": 12.9362953, "lon": 77.6280142}, {"type": "node", "id": 1761893963, "lat": 12.9364509, "lon": 77.6278777}, {"type": "node", "id": 1761893964, "lat": 12.9365006, "lon": 77.6279888}, {"type": "node", "id": 1761893965, "lat": 12.9365096, "lon": 77.6282619}, {"type": "node", "id": 1761893966, "lat": 12.9365615, "lon": 77.6282596}, {"type": "node", "id": 1761893968, "lat": 12.9365795, "lon": 77.6279957}, {"type": "node", "id": 1762395936, "lat": 12.9349986, "lon": 77.628109}, {"type": "node", "id": 1762395950, "lat": 12.93517, "lon": 77.627192}, {"type": "node", "id": 1762395965, "lat": 12.9355294, "lon": 77.6276889}, {"type": "node", "id": 1781959088, "lat": 12.943062, "lon": 77.6175679, "tags": {"amenity": "fast_food", "cuisine": "indian", "name": "Manasa Veg"}}, {"type": "node", "id": 1781959094, "lat": 12.9417545, "lon": 77.6215457, "tags": {"amenity": "restaurant", "cuisine": "indian", "name": "Sagar Fast Food", "name:kn": "\u0cb8\u0cbe\u0c97\u0cb0\u0ccd \u0cab\u0cbe\u0cb8\u0ccd\u0c9f\u0ccd \u0cab\u0cc1\u0ca1\u0ccd"}}, {"type": "node", "id": 1781959102, "lat": 12.943452, "lon": 77.6178697, "tags": {"amenity": "atm", "brand": "HDFC Bank", "brand:wikidata": "Q631047", "name": "HDFC Bank", "operator": "HDFC Bank", "operator:wikidata": "Q631047", "short_name": "HDFC"}}, {"type": "node", "id": 1781959104, "lat": 12.9434676, "lon": 77.6178331, "tags": {"amenity": "atm", "brand": "ICICI Bank", "brand:wikidata": "Q1653258", "name": "ICICI Bank", "operator": "ICICI Bank", "operator:wikidata": "Q1653258", "short_name": "ICICI"}}, {"type": "node", "id": 1964234101, "lat": 12.9255152, "lon": 77.6370763, "tags": {"amenity": "restaurant", "brand": "Barbeque Nation", "brand:wikidata": "Q4859568", "check_date": "2025-05-31", "cuisine": "barbecue", "name": "Barbeque Nation", "name:kn": "\u0cac\u0cb0\u0ccd\u0cac\u0c95\u0ccd\u0caf\u0cc1 \u0ca8\u0cc7\u0cb6\u0ca8\u0ccd", "payment:cash": "yes", "payment:mastercard": "yes", "payment:visa": "yes"}}, {"type": "node", "id": 2228526392, "lat": 12.9313893, "lon": 77.623888, "tags": {"designation": "Serviced Apartment", "name": "Login Serviced Apartments", "tourism": "guest_house"}}, {"type": "node", "id": 2285451602, "lat": 12.9347958, "lon": 77.6298075, "tags": {"amenity": "bank", "atm": "yes", "brand": "HDFC Bank", "brand:wikidata": "Q631047", "name": "HDFC Bank", "name:kn": "\u0c8e\u0c9a\u0ccd \u0ca1\u0cbf \u0c8e\u0cab\u0ccd \u0cb8\u0cbf", "short_name": "HDFC"}}, {"type": "node", "id": 2285451678, "lat": 12.9347383, "lon": 77.6298155, "tags": {"amenity": "atm", "brand": "HDFC Bank", "brand:wikidata": "Q631047", "fee": "no", "name": "HDFC Bank", "operator": "HDFC Bank", "operator:wikidata": "Q631047", "short_name": "HDFC"}}, {"type": "node", "id": 2285468345, "lat": 12.9285453, "lon": 77.6283645, "tags": {"shop": "seafood"}}, {"type": "node", "id": 2285468403, "lat": 12.9285532, "lon": 77.6282626, "tags": {"shop": "hairdresser"}}, {"type": "node", "id": 2285468610, "lat": 12.9295466, "lon": 77.6291289, "tags": {"amenity": "pharmacy", "healthcare": "pharmacy", "name": "Ajit Medicals"}}, {"type": "node", "id": 2285469526, "lat": 12.9333424, "lon": 77.6298772, "tags": {"shop": "greengrocer"}}, {"type": "node", "id": 2285469554, "lat": 12.9334024, "lon": 77.6298023, "tags": {"name": "Food Mall", "shop": "convenience"}}, {"type": "node", "id": 2387041069, "lat": 12.9437857, "lon": 77.6236824, "tags": {"amenity": "atm", "brand": "Canara Bank", "brand:en": "Canara Bank", "brand:hi": "\u0915\u0947\u0928\u0930\u093e \u092c\u0948\u0902\u0915", "brand:kn": "\u0c95\u0cc6\u0ca8\u0cb0\u0cbe \u0cac\u0ccd\u0caf\u0cbe\u0c82\u0c95\u0ccd", "brand:pa": "\u0a15\u0a47\u0a28\u0a30\u0a3e \u0a2c\u0a48\u0a02\u0a15", "brand:pnb": "\u06a9\u06cc\u0646\u0631\u0627 \u0628\u06cc\u0646\u06a9", "brand:ur": "\u06a9\u06cc\u0646\u0631\u0627 \u0628\u06cc\u0646\u06a9", "brand:wikidata": "Q2003777", "name": "Canara Bank", "name:en": "Canara Bank", "name:hi": "\u0915\u0947\u0928\u0930\u093e \u092c\u0948\u0902\u0915", "name:kn": "\u0c95\u0cc6\u0ca8\u0cb0\u0cbe \u0cac\u0ccd\u0caf\u0cbe\u0c82\u0c95\u0ccd", "name:pa": "\u0a15\u0a47\u0a28\u0a30\u0a3e \u0a2c\u0a48\u0a02\u0a15", "name:pnb": "\u06a9\u06cc\u0646\u0631\u0627 \u0628\u06cc\u0646\u06a9", "name:ur": "\u06a9\u06cc\u0646\u0631\u0627 \u0628\u06cc\u0646\u06a9", "operator": "Canara Bank", "operator:wikidata": "Q2003777"}}, {"type": "node", "id": 2387041347, "lat": 12.9422696, "lon": 77.6253883, "tags": {"amenity": "atm", "brand": "State Bank of India", "brand:wikidata": "Q1340361", "name": "State Bank of India", "operator": "State Bank of India", "operator:wikidata": "Q1340361", "short_name": "SBI"}}, {"type": "node", "id": 2449073269, "lat": 12.9373411, "lon": 77.6279926}, {"type": "node", "id": 2449073372, "lat": 12.9374015, "lon": 77.6283868, "tags": {"access": "customers", "amenity": "parking", "fee": "yes", "parking": "multi-storey"}}, {"type": "node", "id": 2518837260, "lat": 12.9290137, "lon": 77.6276776, "tags": {"name": "Grand Mercure", "phone": "080 45121212", "tourism": "hotel"}}, {"type": "node", "id": 2531029517, "lat": 12.9303605, "lon": 77.6228604, "tags": {"amenity": "cafe", "brand": "Cafe Coffee Day", "brand:wikidata": "Q5017235", "cuisine": "coffee_shop", "name": "Cafe Coffee Day", "name:kn": "\u0c95\u0cab\u0cc6 \u0c95\u0cbe\u0cab\u0cbf \u0ca1\u0cc7", "takeaway": "yes"}}, {"type": "node", "id": 2542686704, "lat": 12.9305918, "lon": 77.6229717, "tags": {"amenity": "restaurant", "cuisine": "indian", "name": "Sagar Fast Food"}}, {"type": "node", "id": 2542686705, "lat": 12.9308637, "lon": 77.623075, "tags": {"name": "Food Triangle", "shop": "supermarket"}}, {"type": "node", "id": 2542702362, "lat": 12.9312166, "lon": 77.6233097, "tags": {"amenity": "pharmacy", "brand": "MedPlus", "brand:wikidata": "Q65684234", "healthcare": "pharmacy", "name": "MedPlus", "name:kn": "\u0cae\u0cc6\u0ca1\u0ccd\u200d\u0caa\u0ccd\u0cb2\u0cb8\u0ccd"}}, {"type": "node", "id": 2547432010, "lat": 12.9306861, "lon": 77.6230253, "tags": {"amenity": "bank", "atm": "yes", "brand": "Syndicate Bank", "brand:wikidata": "Q2004088", "name": "Syndicate Bank", "name:en": "Syndicate Bank", "name:kn": "\u0cb8\u0cbf\u0c82\u0ca1\u0cbf\u0c95\u0cc7\u0c9f\u0ccd \u0cac\u0ccd\u0caf\u0cbe\u0c82\u0c95\u0ccd", "website": "https://www.syndicatebank.in"}}, {"type": "node", "id": 2700229003, "lat": 12.9308439, "lon": 77.6226408, "tags": {"addr:city": "Bangalore", "addr:housenumber": "BDA Complex", "addr:postcode": "560034", "addr:street": "Mahayogi Vemana Road", "amenity": "restaurant", "capacity": "16", "cuisine": "regional", "name": "Ambur Biriyani", "name:kn": "\u0c85\u0c82\u0cac\u0cc1\u0cb0\u0ccd \u0cac\u0cbf\u0cb0\u0cbf\u0caf\u0cbe\u0ca8\u0cbf", "opening_hours": "10:00-19:00"}}, {"type": "node", "id": 3071135144, "lat": 12.9441523, "lon": 77.6232723}, {"type": "node", "id": 3071135145, "lat": 12.9440128, "lon": 77.6234204}, {"type": "node", "id": 3071135146, "lat": 12.944109, "lon": 77.6235635}, {"type": "node", "id": 3071135147, "lat": 12.9442822, "lon": 77.62345}, {"type": "node", "id": 3389796914, "lat": 12.9466123, "lon": 77.6218766, "tags": {"amenity": "atm", "brand": "Syndicate Bank", "brand:wikidata": "Q2004088", "name": "Syndicate Bank", "name:kn": "\u0cb8\u0cbf\u0c82\u0ca1\u0cbf\u0c95\u0cc7\u0c9f\u0ccd \u0cac\u0ccd\u0caf\u0cbe\u0c82\u0c95\u0ccd", "operator": "Syndicate Bank", "operator:wikidata": "Q2004088"}}, {"type": "node", "id": 3389796915, "lat": 12.9460379, "lon": 77.6221481, "tags": {"name": "Nandini Milk Parlour", "name:kn": "\u0ca8\u0c82\u0ca6\u0cbf\u0ca8\u0cbf \u0cb9\u0cbe\u0cb2\u0cbf\u0ca8 \u0c85\u0c82\u0c97\u0ca1\u0cbf", "shop": "dairy"}}, {"type": "node", "id": 3389796916, "lat": 12.9440649, "lon": 77.624007, "tags": {"name": "Nandini Milk Parlour", "name:kn": "\u0ca8\u0c82\u0ca6\u0cbf\u0ca8\u0cbf \u0cb9\u0cbe\u0cb2\u0cbf\u0ca8 \u0c85\u0c82\u0c97\u0ca1\u0cbf", "shop": "dairy"}}, {"type": "node", "id": 3450233796, "lat": 12.9436693, "lon": 77.62521, "tags": {"shop": "convenience"}}, {"type": "node", "id": 3450233800, "lat": 12.9440787, "lon": 77.6247551, "tags": {"name": "Nami Designer", "shop": "clothes"}}, {"type": "node", "id": 3450233804, "lat": 12.9440393, "lon": 77.6257271, "tags": {"name": "The Bangalore A1", "shop": "dry_cleaning"}}, {"type": "node", "id": 3450276061, "lat": 12.9447492, "lon": 77.6244929, "tags": {"name": "Sri Adhi Lakshmi", "shop": "general"}}, {"type": "node", "id": 3450276072, "lat": 12.9450817, "lon": 77.6242547, "tags": {"name": "Sri Adhi Lakshmi", "shop": "stationery"}}, {"type": "node", "id": 3450276078, "lat": 12.9451326, "lon": 77.6242163, "tags": {"name": "Bhunaa's", "shop": "beauty"}}, {"type": "node", "id": 3450276080, "lat": 12.9423718, "lon": 77.6251542, "tags": {"amenity": "atm", "brand": "State Bank of India", "brand:wikidata": "Q1340361", "name": "State Bank of India", "operator": "State Bank of India", "operator:wikidata": "Q1340361", "short_name": "SBI"}}, {"type": "node", "id": 3463769188, "lat": 12.9419581, "lon": 77.6227858, "tags": {"amenity": "school", "name": "Eye Level Learning Center"}}, {"type": "node", "id": 3463769192, "lat": 12.9420247, "lon": 77.6227252, "tags": {"amenity": "dentist", "healthcare": "dentist", "name": "Sculptura Aesthetic Centre"}}, {"type": "node", "id": 3473325936, "lat": 12.9482932, "lon": 77.6213652, "tags": {"addr:city": "Bangalore", "addr:housenumber": "Ganga Block", "addr:postcode": "560047", "addr:street": "National Games Village", "name": "SLV Stores", "shop": "supermarket"}}, {"type": "node", "id": 3510015824, "lat": 12.9417768, "lon": 77.6215095, "tags": {"addr:city": "Koramangala", "addr:housenumber": "Ganapathi Temple Rd", "addr:postcode": "560095", "addr:street": "Koramangala 8th Block, Nanjappa Reddy Layout,", "amenity": "cafe", "cuisine": "coffee_shop", "internet_access": "yes", "name": "Juice Maker", "opening_hours": "08:00-23:00", "smoking": "outside"}}, {"type": "node", "id": 3525180202, "lat": 12.9402652, "lon": 77.6252646}, {"type": "node", "id": 3525180221, "lat": 12.9403018, "lon": 77.6269551}, {"type": "node", "id": 3525180234, "lat": 12.9403314, "lon": 77.6270356}, {"type": "node", "id": 3525180243, "lat": 12.94036, "lon": 77.6253711}, {"type": "node", "id": 3525180245, "lat": 12.9404332, "lon": 77.6269044}, {"type": "node", "id": 3525180255, "lat": 12.9404627, "lon": 77.6269848}, {"type": "node", "id": 3525180262, "lat": 12.9404244, "lon": 77.6253107}, {"type": "node", "id": 3525669902, "lat": 12.930844, "lon": 77.633838}, {"type": "node", "id": 3525669903, "lat": 12.9309591, "lon": 77.6337086}, {"type": "node", "id": 3525669905, "lat": 12.9309911, "lon": 77.6339758}, {"type": "node", "id": 3525669906, "lat": 12.9311062, "lon": 77.6338463}, {"type": "node", "id": 3534829335, "lat": 12.9250998, "lon": 77.6337004}, {"type": "node", "id": 3534829341, "lat": 12.9251101, "lon": 77.6337905}, {"type": "node", "id": 3534829399, "lat": 12.9252881, "lon": 77.6336778}, {"type": "node", "id": 3534829408, "lat": 12.9252984, "lon": 77.6337679}, {"type": "node", "id": 3535941963, "lat": 12.9345739, "lon": 77.6284534}, {"type": "node", "id": 3535941974, "lat": 12.9345912, "lon": 77.6287616}, {"type": "node", "id": 3535941988, "lat": 12.9346178, "lon": 77.6285213}, {"type": "node", "id": 3535942098, "lat": 12.934633, "lon": 77.6284131}, {"type": "node", "id": 3535942115, "lat": 12.9346713, "lon": 77.6286952}, {"type": "node", "id": 3535942118, "lat": 12.9346749, "lon": 77.6288679}, {"type": "node", "id": 3535942122, "lat": 12.934677, "lon": 77.6284811}, {"type": "node", "id": 3535942128, "lat": 12.9346819, "lon": 77.6255011}, {"type": "node", "id": 3535942149, "lat": 12.9347351, "lon": 77.6254105}, {"type": "node", "id": 3535942162, "lat": 12.9347551, "lon": 77.6288015}, {"type": "node", "id": 3535942175, "lat": 12.9347878, "lon": 77.6255665}, {"type": "node", "id": 3535942396, "lat": 12.9348409, "lon": 77.6254759}, {"type": "node", "id": 3535942809, "lat": 12.9350934, "lon": 77.6248126}, {"type": "node", "id": 3535942822, "lat": 12.9351224, "lon": 77.624848}, {"type": "node", "id": 3535942850, "lat": 12.9351883, "lon": 77.6246651}, {"type": "node", "id": 3535942883, "lat": 12.9352496, "lon": 77.6247382}, {"type": "node", "id": 3535945940, "lat": 12.9367342, "lon": 77.6269756}, {"type": "node", "id": 3535945973, "lat": 12.9368334, "lon": 77.6268796}, {"type": "node", "id": 3535945980, "lat": 12.9368677, "lon": 77.6271209}, {"type": "node", "id": 3535946496, "lat": 12.9369669, "lon": 77.627025}, {"type": "node", "id": 3574424393, "lat": 12.9410189, "lon": 77.6237641}, {"type": "node", "id": 3574424394, "lat": 12.941083, "lon": 77.6237099}, {"type": "node", "id": 3574424395, "lat": 12.9410832, "lon": 77.623844}, {"type": "node", "id": 3574424396, "lat": 12.9411473, "lon": 77.6237898}, {"type": "node", "id": 3611815582, "lat": 12.9344183, "lon": 77.626046, "tags": {"addr:city": "Bengaluru", "addr:housenumber": "8", "addr:postcode": "560034", "addr:street": "8th Main, 4th Block, Koramangala", "name": "Mango Hotels", "phone": "+918060009696", "tourism": "hotel"}}, {"type": "node", "id": 3740940827, "lat": 12.945188, "lon": 77.6188125}, {"type": "node", "id": 3740940828, "lat": 12.9453318, "lon": 77.6183783}, {"type": "node", "id": 3740940829, "lat": 12.9454208, "lon": 77.6189807}, {"type": "node", "id": 3740940833, "lat": 12.945765, "lon": 77.6185487}, {"type": "node", "id": 3740957814, "lat": 12.9410561, "lon": 77.6244838}, {"type": "node", "id": 3782893189, "lat": 12.9342864, "lon": 77.6301111, "tags": {"amenity": "bar", "name": "1522"}}, {"type": "node", "id": 3801706348, "lat": 12.937762, "lon": 77.6271125, "tags": {"amenity": "restaurant", "craft": "brewery", "level": "3;2", "name": "Ichin Restaurant"}}, {"type": "node", "id": 3960924263, "lat": 12.9324956, "lon": 77.631848, "tags": {"addr:postcode": "560034", "addr:street": "80 Feet Road", "amenity": "bank", "atm": "yes", "brand": "Axis Bank", "brand:wikidata": "Q2003549", "brand:wikipedia": "en:Axis Bank", "level": "0", "name": "Axis Bank", "name:en": "Axis Bank", "name:kn": "\u0c85\u0c95\u0ccd\u0cb8\u0cbf\u0cb8\u0ccd \u0cac\u0ccd\u0caf\u0cbe\u0c82\u0c95\u0ccd", "website": "https://www.axisbank.com", "wheelchair": "no"}}, {"type": "node", "id": 3969066508, "lat": 12.9405931, "lon": 77.6256818}, {"type": "node", "id": 3969066509, "lat": 12.9415055, "lon": 77.6247904}, {"type": "node", "id": 4133355393, "lat": 12.9274912, "lon": 77.6373711, "tags": {"amenity": "restaurant", "contact:phone": "08065321900", "contact:website": "manis.in", "drive_in": "no", "name": "Mani's Dum Biriyani", "operator": "Mani's Dum Biriyani", "organic": "no", "smoking": "no"}}, {"type": "node", "id": 4133370689, "lat": 12.9272827, "lon": 77.6379132, "tags": {"amenity": "atm", "brand": "Axis Bank", "brand:wikidata": "Q2003549", "cash_in": "no", "currency:INR": "yes", "drive_through": "no", "operator": "Axis Bank", "operator:wikidata": "Q2003549"}}, {"type": "node", "id": 4133376389, "lat": 12.9273443, "lon": 77.6381549, "tags": {"name": "Naiyanar Bakery", "shop": "bakery"}}, {"type": "node", "id": 4192020689, "lat": 12.9414316, "lon": 77.6174359, "tags": {"amenity": "atm", "opening_hours": "24/7"}}, {"type": "node", "id": 4267702355, "lat": 12.9327419, "lon": 77.6269861, "tags": {"operator": "FlipKart", "shop": "Flipkart.com"}}, {"type": "node", "id": 4294187645, "lat": 12.9253813, "lon": 77.6337008, "tags": {"amenity": "bar", "indoor_seating": "yes", "name": "Pingara Restaurant & Bar", "outdoor_seating": "no"}}, {"type": "node", "id": 4442516055, "lat": 12.9250105, "lon": 77.6278708, "tags": {"addr:city": "bangalore", "addr:housenumber": "365", "addr:postcode": "560034", "addr:street": "Sulochana Building, 1st Cross Rd, 3rd Block, Sarjapura Main Road, Koramangala", "amenity": "hospital", "name": "Gunasheela Hospitals", "phone": "+91-80 - 4646 2626", "website": "http://gunasheela.co.in/"}}, {"type": "node", "id": 4442655749, "lat": 12.9247643, "lon": 77.6382862, "tags": {"addr:city": "Bangalore", "addr:district": "Bengaluru Urban", "addr:full": "97 Sarjapur Road 1st Block Koramangala", "addr:housenumber": "97", "addr:postcode": "560034", "addr:state": "Karnataka", "addr:street": "Sarjapura Road, Jakkasandra Extension", "amenity": "clinic", "name": "Murthy Health and Research Centre", "phone": "+91- 80 2553 6090", "source": "OpenGovernmentData"}}, {"type": "node", "id": 4446849884, "lat": 12.9344224, "lon": 77.6299785, "tags": {"addr:city": "Bengaluru", "addr:housenumber": "101", "addr:postcode": "560034", "addr:street": "KAY ARR CORNER STONE 2nd Floor 80 Feet Road 4th Block, Koramangala,Karnataka", "amenity": "hospital", "healthcare": "hospital", "name": "Fj Merrit Hydrotherapy And Wellness", "phone": "080 4095 1282"}}, {"type": "node", "id": 4446872947, "lat": 12.9422807, "lon": 77.6208282, "tags": {"addr:city": "bangalore", "addr:housenumber": "727", "addr:postcode": "560095", "addr:street": ", 8th Block, 1st Main, Opposite Shiva Theater, 2nd C Cross Rd, Koramangala 8th Block, Koramangala", "amenity": "clinic", "healthcare": "clinic", "name": "Shradha Nursing Home", "phone": "080 2290 3660"}}, {"type": "node", "id": 4447013605, "lat": 12.9398696, "lon": 77.6257338, "tags": {"addr:city": "bangalore", "addr:housenumber": "914", "addr:postcode": "560095", "addr:street": "Venkateshwara Complex, 80 Feet Main Road, 6th Block, Venkappa Garden, Koramangala, Venkappa Garden, Ejipura", "amenity": "pharmacy", "healthcare": "pharmacy", "name": "Diabetacare", "phone": "+9180679 19191", "source": "justdial", "website": "https://diabetacare.com/"}}, {"type": "node", "id": 4447025891, "lat": 12.9301422, "lon": 77.6231727, "tags": {"addr:city": "Bangalore", "addr:housenumber": "677", "addr:postcode": "560034", "addr:street": "16th main, 3rd Block, Koramangala, Bengaluru", "amenity": "pharmacy", "healthcare": "pharmacy", "name": "Anand Diagnostic Laboratory", "phone": "080 2550 4207", "source": "justdial", "website": "https://www.anandlab.com/"}}, {"type": "node", "id": 4447072622, "lat": 12.9317312, "lon": 77.6230979, "tags": {"addr:city": "Bangalore", "addr:postcode": "560034", "addr:street": "Koramangala BDA, 6th B Cross Road, Koramangala 3 Block, Koramangala", "amenity": "pharmacy", "healthcare": "pharmacy", "name": "Ruth Medicals", "phone": "+9180 2553 7424", "source": "justdail"}}, {"type": "node", "id": 4447075923, "lat": 12.9340694, "lon": 77.625222, "tags": {"addr:city": "Bengaluru", "addr:postcode": "560034", "addr:street": "BDA Complex, Koramangala 4th Block, Koramangala", "amenity": "pharmacy", "healthcare": "pharmacy", "name": "Maxwell Pharma", "phone": "+9180 2553 1177", "source": "justdial"}}, {"type": "node", "id": 4447594673, "lat": 12.9353486, "lon": 77.6249595, "tags": {"addr:housenumber": "41", "addr:street": "100 feet road, Koramangala 4th Block", "amenity": "cafe", "description": "Pay by the hour. INR 190 for the first hour. INR 3 per minute after that. Food and beverages on the house", "name": "Dialogues Cafe", "opening_hours": "Mo-Su 10:00-22:00", "phone": "098119 74842", "website": "www.dialoguescafe.com"}}, {"type": "node", "id": 4485323002, "lat": 12.9268723, "lon": 77.623687, "tags": {"name": "TVS", "name:en": "TVS", "shop": "car"}}, {"type": "node", "id": 4487961417, "lat": 12.9452356, "lon": 77.6184676, "tags": {"addr:city": "bangalore", "addr:postcode": "560068", "addr:street": "ICICI Lombard General Insurance Madivala Bangalore, 2nd Floor, S V R Complex 89, Hosur Main Road,, Madiwala, 1st Stage, Koramangala", "brand": "Puma", "brand:wikidata": "Q157064", "name": "Puma", "phone": "+9194003 77812", "shop": "clothes"}}, {"type": "node", "id": 4489725301, "lat": 12.9359041, "lon": 77.6284372, "tags": {"addr:city": "Bangalore", "addr:housenumber": "No.107,2nd Floor,Art Arcade", "addr:postcode": "560034", "addr:street": "80 Feet Road;7th Main Road", "name": "Charisma Spa Pvt Ltd", "opening_hours": "09:30-20:30", "phone": "9742009417", "shop": "beauty", "website": "https://www.charismabeautyspa.com/"}}, {"type": "node", "id": 4489756652, "lat": 12.926081, "lon": 77.6254085, "tags": {"addr:city": "Bengaluru", "addr:housenumber": "374", "addr:postcode": "560034", "addr:street": "Sarjapura Road", "addr:suburb": "Koramangala", "amenity": "cafe", "cuisine": "coffee_shop", "delivery": "yes", "name": "The Craftery by Subko, BLR", "operator": "Subko Coffee Roasters", "shop": "chocolate", "smoking": "separated", "takeaway": "yes", "toilets": "yes", "toilets:access": "customers", "website": "https://www.subko.coffee"}}, {"type": "node", "id": 4489757553, "lat": 12.9289891, "lon": 77.6278047, "tags": {"addr:city": "bangalore", "addr:housenumber": "Grand Mercure Hotel,, 12th Main Rd,", "addr:postcode": "560034", "addr:street": "12th Main Road", "name": "O2 Spa", "opening_hours": "10:00-21:00", "phone": "9247020202", "shop": "beauty"}}, {"type": "node", "id": 4489773833, "lat": 12.9384867, "lon": 77.6235272, "tags": {"addr:city": "Bangalore", "addr:housenumber": "no 112", "addr:postcode": "560095", "addr:street": "kathalipalya village ,Ejipura Dhekale ,6th cross 6th, block,Koramangala", "name": "Ocean salon & spa", "opening_hours": "11:00-21:30", "phone": "080-41232838", "shop": "beauty"}}, {"type": "node", "id": 4489791821, "lat": 12.9280827, "lon": 77.6373095, "tags": {"addr:city": "bangalore", "addr:housenumber": "305, 1st Main Rd, Koramangala 1st Block", "addr:postcode": "5560034", "addr:street": "Jakkasandra extension, HSR Layout, 1st Block Koramangala,", "name": "Essence Unisex Salon And Spa", "opening_hours": "8:30-21:00", "phone": "080-40953697", "shop": "beauty"}}, {"type": "node", "id": 4489795674, "lat": 12.9336239, "lon": 77.6296283, "tags": {"addr:city": "Bengaluru", "addr:housenumber": "#638, 2nd Floor, 12th Main Road, Koramangala 4 Block,", "addr:postcode": "560034", "addr:street": "Koramangala, Koramangala 4th Block", "name": "Renaissance Unisex Salon & Spa", "opening_hours": "11:00-20:00", "phone": "8861350829", "shop": "beauty"}}, {"type": "node", "id": 4489864991, "lat": 12.9406759, "lon": 77.6245, "tags": {"addr:city": "Bangalore", "addr:housenumber": "1st Floor,# 470, 80 Feet Road Koramangala", "addr:postcode": "560095", "addr:street": "6th Block, Opp Koramangala Bus Depot,Koramangala, 6th Block", "name": "STUDIO11 Salon & Spa", "opening_hours": "09:00-21:00", "phone": "078158 98038", "shop": "beauty", "website": "https://www.studio11.co/"}}, {"type": "node", "id": 4489896406, "lat": 12.9252152, "lon": 77.6338719, "tags": {"addr:city": "Bengaluru", "addr:housenumber": "Varthur Sarjapur Road, Near Govt. School", "addr:postcode": "560087", "addr:street": "Gunjur, 239, 1st Cross Rd, 1st Block Koramangala", "name": "Isthaa spa", "opening_hours": "08:00-20:00", "phone": "090353 52000", "shop": "beauty", "website": "https://isthaa.com/"}}, {"type": "node", "id": 4545940589, "lat": 12.9341008, "lon": 77.6272181, "tags": {"amenity": "pharmacy", "brand": "MedPlus", "brand:wikidata": "Q65684234", "healthcare": "pharmacy", "name": "MedPlus", "name:en": "Medplus Pharmacy"}}, {"type": "node", "id": 4545940689, "lat": 12.9340373, "lon": 77.6272494, "tags": {"name": "Fringes Unisex Salon", "name:en": "Fringes Unisex Salon", "shop": "cosmetics"}}, {"type": "node", "id": 4582748890, "lat": 12.9304984, "lon": 77.6338469, "tags": {"amenity": "restaurant", "name:zh": "\u4e2d\u56fd\u83dc"}}, {"type": "node", "id": 4766266155, "lat": 12.9378068, "lon": 77.6271846, "tags": {"name": "SOCH", "shop": "clothes"}}, {"type": "node", "id": 4766266156, "lat": 12.9378414, "lon": 77.6272417, "tags": {"name": "Kushals", "shop": "clothes"}}, {"type": "node", "id": 4772955933, "lat": 12.9315321, "lon": 77.6228069, "tags": {"addr:street": "Mahayogi Vemana Road", "brand": "Maruti Suzuki", "brand:wikidata": "Q963718", "name": "Maruti Suzuki", "name:en": "Maruti Suzuki", "shop": "car"}}, {"type": "node", "id": 4772964933, "lat": 12.9317652, "lon": 77.6229215, "tags": {"amenity": "bar", "name": "Sutra Spice Resto Bar", "name:en": "Sutra Spice Resto Bar"}}, {"type": "node", "id": 4772964954, "lat": 12.9317704, "lon": 77.6228514, "tags": {"amenity": "bank", "branch": "4th Block", "brand": "ICICI Bank", "brand:wikidata": "Q1653258", "name": "ICICI Bank", "name:en": "ICICI Bank", "name:kn": "\u0c90\u0cb8\u0cbf\u0c90\u0cb8\u0cbf\u0c90 \u0cac\u0ccd\u0caf\u0cbe\u0c82\u0c95\u0cc1", "short_name": "ICICI", "website": "https://www.icicibank.com"}}, {"type": "node", "id": 4772964955, "lat": 12.9332818, "lon": 77.6233214, "tags": {"addr:street": "Mahayogi Vemana Road", "amenity": "bar", "name": "Bar Code", "name:en": "Barcode"}}, {"type": "node", "id": 4772969935, "lat": 12.9320032, "lon": 77.6229997, "tags": {"amenity": "clinic", "healthcare": "clinic", "name": "Vachani Vista", "name:en": "Vachani Vista"}}, {"type": "node", "id": 4772970426, "lat": 12.9321765, "lon": 77.623039, "tags": {"name": "Anjappar Chettinad Restuarant Koramangala", "name:en": "Anjappar", "tourism": "hotel"}}, {"type": "node", "id": 4803663651, "lat": 12.9244154, "lon": 77.629662}, {"type": "node", "id": 4803663652, "lat": 12.9244725, "lon": 77.6287541}, {"type": "node", "id": 5247276738, "lat": 12.9370109, "lon": 77.6275262, "tags": {"addr:housenumber": "8, near Sapphire toy store", "amenity": "cafe", "name": "Via Milano", "phone": "+918041309997"}}, {"type": "node", "id": 5430002764, "lat": 12.9423918, "lon": 77.6204543, "tags": {"addr:city": "Koramangala 8th block, Bangalore", "addr:housenumber": "11", "addr:postcode": "560095", "addr:street": "3rd main road", "internet_access": "yes", "internet_access:fee": "yes", "name": "Aravind Home", "operator": "Aravind Home", "rooms": "3 floors", "tourism": "guest_house"}}, {"type": "node", "id": 5773097749, "lat": 12.9380609, "lon": 77.6275572, "tags": {"addr:city": "Bangalore", "addr:floor": "4", "addr:housenumber": "23", "addr:place": "Koramangala", "addr:postcode": "560095", "amenity": "restaurant", "contact:phone": "+9187920 00390", "name": "Bakasur"}}, {"type": "node", "id": 5773107048, "lat": 12.9381482, "lon": 77.6276388, "tags": {"addr:block": "6", "addr:city": "Bangalore", "addr:floor": "4", "addr:place": "Koramangala", "addr:postcode": "560034", "addr:street": "100 Feet Inner Ring Road", "amenity": "bar", "contact:phone": "+9187920 00390", "name": "Bak Bak Bar"}}, {"type": "node", "id": 5804513576, "lat": 12.9369153, "lon": 77.6268171}, {"type": "node", "id": 5804513577, "lat": 12.9370493, "lon": 77.6269673}, {"type": "node", "id": 5804513578, "lat": 12.9369835, "lon": 77.6270291}, {"type": "node", "id": 5804513579, "lat": 12.9368494, "lon": 77.6268789}, {"type": "node", "id": 5804526265, "lat": 12.9397039, "lon": 77.6253698}, {"type": "node", "id": 5804526267, "lat": 12.9394189, "lon": 77.6255053}, {"type": "node", "id": 5804526268, "lat": 12.9393366, "lon": 77.6253229}, {"type": "node", "id": 5807262206, "lat": 12.9251568, "lon": 77.6338744, "tags": {"amenity": "restaurant", "indoor_seating": "yes", "name": "Pingara", "outdoor_seating": "no"}}, {"type": "node", "id": 5867148307, "lat": 12.9383979, "lon": 77.6262855}, {"type": "node", "id": 5867148308, "lat": 12.9385504, "lon": 77.6266404}, {"type": "node", "id": 5867148309, "lat": 12.9382352, "lon": 77.6267606}, {"type": "node", "id": 5867148310, "lat": 12.9381317, "lon": 77.6264664}, {"type": "node", "id": 5915195103, "lat": 12.9388196, "lon": 77.625775, "tags": {"amenity": "restaurant", "diet:vegan": "yes", "name": "Carrots", "website": "https://www.carrots-india.com/"}}, {"type": "node", "id": 5915230899, "lat": 12.9367256, "lon": 77.6265291, "tags": {"name": "Riya Kodali Design House", "shop": "yes"}}, {"type": "node", "id": 5915230900, "lat": 12.936096, "lon": 77.6258876, "tags": {"amenity": "bank", "name": "Saraswat Bank"}}, {"type": "node", "id": 5915230908, "lat": 12.9325902, "lon": 77.6232725, "tags": {"amenity": "bank", "brand": "HDFC Bank", "brand:wikidata": "Q631047", "name": "HDFC Bank", "short_name": "HDFC"}}, {"type": "node", "id": 5915569162, "lat": 12.9356454, "lon": 77.628683, "tags": {"amenity": "bank", "branch": "4th Block", "brand": "HDFC Bank", "brand:wikidata": "Q631047", "name": "HDFC Bank", "short_name": "HDFC"}}, {"type": "node", "id": 5915569163, "lat": 12.9350683, "lon": 77.6292839, "tags": {"addr:city": "Bangalore", "addr:country": "IN", "addr:housenumber": "974", "addr:postcode": "560034", "addr:street": "80 Feet Road", "addr:suburb": "Koramangala", "amenity": "restaurant", "contact:facebook": "nasiandmee", "contact:instagram": "nasiandmee", "cuisine": "asian", "delivery": "yes", "level": "0", "name": "Nasi and Mee", "official_name": "Nasi and Mee Asian Canteen", "phone": "+91 80 4151 3456", "takeaway": "yes", "website": "https://www.nasiandmee.co.in/"}}, {"type": "node", "id": 5915887950, "lat": 12.9362974, "lon": 77.6277069, "tags": {"amenity": "bank", "brand": "Yes Bank", "brand:wikidata": "Q2040394", "name": "Yes Bank", "name:kn": "\u0caf\u0cb8\u0ccd \u0cac\u0ccd\u0caf\u0cbe\u0c82\u0c95\u0ccd"}}, {"type": "node", "id": 5915887963, "lat": 12.9344393, "lon": 77.6295345, "tags": {"amenity": "restaurant", "name": "BSR Lassi Packers Shop"}}, {"type": "node", "id": 5915887964, "lat": 12.9346219, "lon": 77.6293199, "tags": {"amenity": "bank", "brand": "Andhra Bank", "brand:wikidata": "Q2003476", "name": "Andhra Bank", "name:kn": "\u0c86\u0c82\u0ca7\u0ccd\u0cb0 \u0cac\u0ccd\u0caf\u0cbe\u0c82\u0c95\u0ccd"}}, {"type": "node", "id": 5915887965, "lat": 12.9348078, "lon": 77.6291104, "tags": {"name": "Petals", "shop": "yes"}}, {"type": "node", "id": 5915887969, "lat": 12.9255456, "lon": 77.6333329, "tags": {"amenity": "restaurant", "check_date": "2023-11-30", "name": "Bistro Claytopia", "start_date": "2004"}}, {"type": "node", "id": 5915887970, "lat": 12.9257724, "lon": 77.6333947, "tags": {"amenity": "bank", "brand": "State Bank of India", "brand:wikidata": "Q1340361", "check_date": "2025-08-08", "name": "State Bank of India", "short_name": "SBI"}}, {"type": "node", "id": 5915887971, "lat": 12.9260044, "lon": 77.6332862, "tags": {"amenity": "restaurant", "name": "Magnolia"}}, {"type": "node", "id": 5915887973, "lat": 12.926672, "lon": 77.6335707, "tags": {"name": "iService - iPhone, MacBook, Oneplus, Xiaomi Repairs and Service Center", "shop": "electronics"}}, {"type": "node", "id": 5915887975, "lat": 12.9269862, "lon": 77.6332224, "tags": {"amenity": "bank", "brand": "Federal Bank", "brand:wikidata": "Q2044983", "name": "Federal Bank"}}, {"type": "node", "id": 5915906203, "lat": 12.9255085, "lon": 77.6343557, "tags": {"amenity": "pharmacy", "dispensing": "yes", "healthcare": "pharmacy", "name": "Pragathi Homeo Pharmacy"}}, {"type": "node", "id": 5915906204, "lat": 12.9256013, "lon": 77.6359638, "tags": {"addr:district": "Bengaluru Urban", "addr:full": "No. 8, 1st Main Road 1st Block, Koramangala", "addr:postcode": "560034", "addr:state": "Karnataka", "amenity": "hospital", "check_date": "2023-12-31", "healthcare": "hospital", "name": "Sankeerthana Hospital and Fertility Center", "source": "OpenGovernmentData"}}, {"type": "node", "id": 5915906216, "lat": 12.9256161, "lon": 77.6368877, "tags": {"amenity": "bank", "brand": "State Bank of India", "brand:wikidata": "Q1340361", "name": "State Bank of India", "name:kn": "\u0cad\u0cbe\u0cb0\u0ca4\u0cc0\u0caf \u0cb8\u0ccd\u0c9f\u0cc7\u0c9f\u0ccd \u0cac\u0ccd\u0caf\u0cbe\u0c82\u0c95\u0ccd", "short_name": "SBI"}}, {"type": "node", "id": 5915906217, "lat": 12.9251513, "lon": 77.6378065, "tags": {"amenity": "restaurant", "brand": "Barbeque Nation", "brand:wikidata": "Q4859568", "cuisine": "barbecue", "name": "Barbeque Nation", "name:kn": "\u0cac\u0cb0\u0ccd\u0cac\u0c95\u0ccd\u0caf\u0cc1 \u0ca8\u0cc7\u0cb6\u0ca8\u0ccd"}}, {"type": "node", "id": 5915906218, "lat": 12.9250056, "lon": 77.6379296, "tags": {"amenity": "bank", "name": "Chartered Sahakari Bank Niyamitha"}}, {"type": "node", "id": 5983500265, "lat": 12.9256424, "lon": 77.6366798, "tags": {"amenity": "bank", "brand": "ICICI Bank", "brand:wikidata": "Q1653258", "name": "ICICI Bank", "short_name": "ICICI"}}, {"type": "node", "id": 5983500949, "lat": 12.9253183, "lon": 77.6348207, "tags": {"name": "Aishwarya", "shop": "department_store"}}, {"type": "node", "id": 5993280660, "lat": 12.9452676, "lon": 77.619173}, {"type": "node", "id": 5993280661, "lat": 12.9450885, "lon": 77.6191327}, {"type": "node", "id": 6067868839, "lat": 12.9332568, "lon": 77.6296592, "tags": {"amenity": "pharmacy", "healthcare": "pharmacy", "name": "Kiran Medical Store"}}, {"type": "node", "id": 6124618183, "lat": 12.9366526, "lon": 77.6277125, "tags": {"amenity": "hospital", "healthcare": "hospital", "name": "Shiva Vision Care"}}, {"type": "node", "id": 6124618658, "lat": 12.9367507, "lon": 77.62774, "tags": {"name": "Lassi top", "shop": "coffee"}}, {"type": "node", "id": 6124618695, "lat": 12.9367615, "lon": 77.6276835, "tags": {"amenity": "restaurant", "name": "The Tiffin Express"}}, {"type": "node", "id": 6348880655, "lat": 12.9436634, "lon": 77.6189383, "tags": {"addr:place": "Koramangala", "amenity": "school", "isced:level": "2", "name": "GMPS Koramangala", "name:kn": "\u0cb8\u0cb0\u0ccd\u0c95\u0cbe\u0cb0\u0cbf \u0cae\u0cbe\u0ca6\u0cb0\u0cbf \u0caa\u0ccd\u0cb0\u0cbe\u0ca5\u0cae\u0cbf\u0c95 \u0cb6\u0cbe\u0cb2\u0cc6 \u0c95\u0ccb\u0cb0\u0cae\u0c82\u0c97\u0cb2", "operator": "Department of Primary and Secondary Education", "operator:type": "government", "operator:wikidata": "Q111467381", "school": "primary"}}, {"type": "node", "id": 6515065044, "lat": 12.9256339, "lon": 77.6368064, "tags": {"amenity": "bank", "brand": "Kotak Mahindra Bank", "brand:wikidata": "Q2040404", "name": "Kotak Mahindra Bank", "name:kn": "\u0c95\u0ccb\u0c9f\u0c95\u0ccd \u0cae\u0cb9\u0cbf\u0c82\u0ca6\u0ccd\u0cb0 \u0cac\u0ccd\u0caf\u0cbe\u0c82\u0c95\u0ccd"}}, {"type": "node", "id": 6536328458, "lat": 12.9289663, "lon": 77.6240375, "tags": {"addr:place": "Koramangala", "amenity": "school", "isced:level": "3", "name": "Dba Reddy Janasangha Koramangala", "name:kn": "\u0ca1\u0cbf\u0cac\u0cbf\u0c8e \u0cb0\u0cc6\u0ca1\u0ccd\u0ca1\u0cbf \u0c9c\u0ca8\u0cb8\u0c82\u0c98 \u0c95\u0ccb\u0cb0\u0cae\u0c82\u0c97\u0cb2", "operator": "Private Un-Aided", "school": "Higher Secondary"}}, {"type": "node", "id": 6536356188, "lat": 12.9350185, "lon": 77.6276797, "tags": {"addr:place": "Koramangala", "amenity": "school", "isced:level": "3", "name": "Chinmaya Vidyalaya, Koramangala", "name:kn": "\u0c9a\u0cbf\u0ca8\u0ccd\u0cae\u0caf \u0cb5\u0cbf\u0ca6\u0ccd\u0caf\u0cbe\u0cb2\u0caf, \u0c95\u0ccb\u0cb0\u0cae\u0c82\u0c97\u0cb2", "operator": "Private Un-Aided", "school": "Higher Secondary"}}, {"type": "node", "id": 6609184248, "lat": 12.9340215, "lon": 77.6293735, "tags": {"name": "Lassi Shop", "shop": "coffee"}}, {"type": "node", "id": 6702830215, "lat": 12.9331051, "lon": 77.62526, "tags": {"addr:place": "Mestri Palya", "amenity": "school", "isced:level": "1", "name": "GLPS Mestri Palya", "name:kn": "\u0cb8\u0cb0\u0ccd\u0c95\u0cbe\u0cb0\u0cbf \u0c95\u0cbf\u0cb0\u0cbf\u0caf \u0caa\u0ccd\u0cb0\u0cbe\u0ca5\u0cae\u0cbf\u0c95 \u0cb6\u0cbe\u0cb2\u0cc6 \u0cae\u0cc7\u0cb8\u0ccd\u0ca4\u0ccd\u0cb0\u0cbf \u0caa\u0cbe\u0cb3\u0ccd\u0caf ,\u0c88\u0c9c\u0cbf\u0caa\u0cc1\u0cb0", "operator": "Department of Primary and Secondary Education", "operator:type": "government", "operator:wikidata": "Q111467381", "school": "primary"}}, {"type": "node", "id": 6734440134, "lat": 12.9261765, "lon": 77.6361788, "tags": {"addr:place": "Eegipura", "amenity": "school", "isced:level": "3", "name": "Seema HPS Eegipura W No 68", "name:kn": "\u0cb8\u0cc0\u0cae\u0cbe \u0cb9\u0cbf\u0cb0\u0cbf\u0caf \u0caa\u0ccd\u0cb0\u0cbe\u0ca5\u0cae\u0cbf\u0c95 \u0cb6\u0cbe\u0cb2\u0cc6 \u0c88\u0c9c\u0cbf\u0caa\u0cc1\u0cb0", "operator": "Private Un-Aided", "school": "Higher Secondary"}}, {"type": "node", "id": 6734448697, "lat": 12.9248675, "lon": 77.6292823, "tags": {"addr:place": "Eegipura", "amenity": "school", "isced:level": "3", "name": "St Frances Icse School Koramangala", "name:kn": "\u0cb8\u0cc7\u0c82\u0c9f\u0ccd \u0cab\u0ccd\u0cb0\u0cbe\u0ca8\u0ccd\u0cb8\u0cbf\u0cb8\u0ccd \u0c90.\u0cb8\u0cbf.\u0c8e\u0cb8\u0ccd.\u0c87. \u0c95\u0ccb\u0cb0\u0cae\u0c82\u0c97\u0cb2, \u0c88\u0c9c\u0cbf\u0caa\u0cc1\u0cb0", "operator": "Private Un-Aided", "school": "Private Un-Aided"}}, {"type": "node", "id": 6939253041, "lat": 12.9412109, "lon": 77.6238987, "tags": {"addr:district": "Bengaluru Urban", "addr:full": "#434, 18Th Main 80 Ft Road, 6Th Block, Opp Koramangala Bus Depot", "addr:housenumber": "434", "addr:postcode": "560095", "addr:state": "Karnataka", "addr:street": "18th Main Road", "amenity": "hospital", "check_date": "2024-01-10", "email": "care@devieyehospital.in", "full_name": "Devi Super Speciality Eye Hospital Pvt Ltd", "healthcare": "hospital", "healthcare:speciality": "multi speciality", "name": "Devi Eye Hospital", "operator:type": "private", "source": "OpenGovernmentData", "website": "http://www.devieyehospital.in/"}}, {"type": "node", "id": 6939350511, "lat": 12.9314314, "lon": 77.6233582, "tags": {"addr:district": "Bengaluru Urban", "addr:full": "81, 7Th Cross 4Th Block, Near Bda Complex Koramangala", "addr:postcode": "560034", "addr:state": "Karnataka", "amenity": "clinic", "healthcare": "clinic", "name": "Kamala Nethralaya", "source": "OpenGovernmentData"}}, {"type": "node", "id": 6947701126, "lat": 12.9425676, "lon": 77.6224349, "tags": {"addr:district": "Bengaluru Urban", "addr:full": "Koramangala", "addr:postcode": "560095", "addr:state": "Karnataka", "amenity": "hospital", "healthcare": "hospital", "name": "Well Spring hospital", "source": "OpenGovernmentData"}}, {"type": "node", "id": 7056126647, "lat": 12.9255746, "lon": 77.6375362}, {"type": "node", "id": 7056126648, "lat": 12.9255184, "lon": 77.6378139}, {"type": "node", "id": 7056126649, "lat": 12.9250956, "lon": 77.6377328}, {"type": "node", "id": 7056126650, "lat": 12.9252518, "lon": 77.6374833}, {"type": "node", "id": 7160747616, "lat": 12.9405303, "lon": 77.6235653, "tags": {"addr:city": "Bengaluru", "addr:country": "IN", "addr:hamlet": "Koramangala 6th Block", "addr:housenumber": "438", "addr:postcode": "560095", "addr:street": "18th Main Road", "amenity": "restaurant", "check_date": "2024-10-11", "cuisine": "regional", "diet:halal": "yes", "diet:meat": "yes", "diet:non-vegetarian": "yes", "diet:vegetarian": "yes", "email": "info@kappachakkakandhari.com", "highchair": "yes", "name": "Kappa Chakka Kandhari", "payment:cash": "yes", "payment:credit_cards": "yes", "payment:debit_cards": "yes", "phone": "+91 636467 1010", "toilets:wheelchair": "yes", "website": "https://www.kappachakkakandhari.com/", "wheelchair": "yes"}}, {"type": "node", "id": 7178597282, "lat": 12.9407064, "lon": 77.6201677, "tags": {"addr:city": "Bengaluru", "addr:country": "IN", "addr:hamlet": "Koramangala 8tth Block", "addr:housenumber": "583", "addr:postcode": "560095", "addr:street": "80 Feet Road", "email": "hello@sourhouse.in", "name": "Sour House", "opening_hours": "Mo-Sa 10:00-19:00", "shop": "bakery", "website": "https://www.sourhouse.in"}}, {"type": "node", "id": 7262972980, "lat": 12.9405373, "lon": 77.6249645}, {"type": "node", "id": 7277381404, "lat": 12.9264383, "lon": 77.6305162}, {"type": "node", "id": 7277381405, "lat": 12.9265376, "lon": 77.6298237}, {"type": "node", "id": 7277381406, "lat": 12.9270056, "lon": 77.6299149}, {"type": "node", "id": 7277381407, "lat": 12.9268865, "lon": 77.6306657}, {"type": "node", "id": 7277381410, "lat": 12.9276592, "lon": 77.6295448}, {"type": "node", "id": 8948240439, "lat": 12.9285794, "lon": 77.628205, "tags": {"name": "Iyengar Bakery", "shop": "bakery"}}, {"type": "node", "id": 8948240440, "lat": 12.9292056, "lon": 77.6242549, "tags": {"barrier": "gate"}}, {"type": "node", "id": 8948240441, "lat": 12.9286787, "lon": 77.6242715, "tags": {"shop": "car"}}, {"type": "node", "id": 8948240445, "lat": 12.9295466, "lon": 77.621946}, {"type": "node", "id": 8948240446, "lat": 12.9286369, "lon": 77.6240596}, {"type": "node", "id": 8948240447, "lat": 12.9292695, "lon": 77.6242769}, {"type": "node", "id": 8948240448, "lat": 12.9301479, "lon": 77.6221955}, {"type": "node", "id": 9790284773, "lat": 12.9272376, "lon": 77.6288919}, {"type": "node", "id": 9810733197, "lat": 12.9366398, "lon": 77.6251927, "tags": {"amenity": "bank", "brand": "Indian Bank", "brand:wikidata": "Q2003789", "name": "Indian Bank", "name:kn": "\u0c87\u0c82\u0ca1\u0cbf\u0caf\u0ca8\u0ccd \u0cac\u0ccd\u0caf\u0cbe\u0c82\u0c95\u0ccd"}}, {"type": "node", "id": 9810748012, "lat": 12.9350754, "lon": 77.6249289, "tags": {"amenity": "restaurant", "name": "Sour House"}}, {"type": "node", "id": 9852222512, "lat": 12.9349148, "lon": 77.6294281, "tags": {"brand": "The Sleep Company", "name": "The Sleep Company Store", "operator": "The Sleep Company", "shop": "furniture", "website": "https://thesleepcompany.in/"}}, {"type": "node", "id": 9933650317, "lat": 12.943185, "lon": 77.6213595, "tags": {"internet_access": "wlan", "name": "Regenta Inn Grand", "tourism": "hotel", "website": "https://www.royalorchidhotels.com/regenta-inn-grand-koramangala-bengaluru/contact-us"}}, {"type": "node", "id": 9933650417, "lat": 12.9434734, "lon": 77.6212956, "tags": {"check_date": "2023-09-09", "name": "Cherry Pick Furniture", "shop": "furniture"}}, {"type": "node", "id": 10036557117, "lat": 12.9449962, "lon": 77.6194713, "tags": {"name": "Akshara Motors", "shop": "car"}}, {"type": "node", "id": 10036557217, "lat": 12.9448081, "lon": 77.6197397, "tags": {"name": "Advaith Hyundai", "name:kn": "\u0c85\u0ca6\u0ccd\u0cb5\u0cc8\u0ca4 \u0cb9\u0ccd\u0caf\u0cc1\u0c82\u0ca1\u0cc8", "shop": "car"}}, {"type": "node", "id": 10036561217, "lat": 12.9449334, "lon": 77.6196372, "tags": {"amenity": "clinic", "name": "IVF Access - Fertility Clinic"}}, {"type": "node", "id": 10036567521, "lat": 12.9451177, "lon": 77.6200265, "tags": {"amenity": "fast_food", "brand": "McDonald's", "brand:wikidata": "Q38076", "cuisine": "burger", "name": "McDonald's", "takeaway": "yes"}}, {"type": "node", "id": 10036568019, "lat": 12.9436787, "lon": 77.6211534, "tags": {"amenity": "restaurant", "name": "Coasta"}}, {"type": "node", "id": 10036568120, "lat": 12.9433532, "lon": 77.6215421, "tags": {"name": "Liquor Mart", "shop": "alcohol"}}, {"type": "node", "id": 10036568121, "lat": 12.943275, "lon": 77.6216701, "tags": {"name": "Manu Pit Stop", "shop": "car_repair"}}, {"type": "node", "id": 10036602717, "lat": 12.9450064, "lon": 77.620248, "tags": {"addr:city": "Bengaluru", "addr:street": "80 Feet Road", "air_conditioning": "yes", "brand": "Zudio", "brand:wikidata": "Q123375926", "clothes": "women;men;underwear;children;denim", "name": "Zudio", "opening_hours": "Mo-Su 11:00-21:00", "payment:cash": "yes", "payment:contactless": "yes", "payment:credit_cards": "yes", "payment:debit_cards": "yes", "payment:mastercard": "yes", "payment:visa": "yes", "shop": "clothes", "website": "https://www.zudio.com/"}}, {"type": "node", "id": 10036635918, "lat": 12.9405431, "lon": 77.6245299, "tags": {"amenity": "bank", "brand": "Axis Bank", "brand:wikidata": "Q2003549", "name": "Axis Bank", "name:kn": "\u0c86\u0c95\u0ccd\u0cb8\u0cbf\u0cb8\u0ccd \u0cac\u0ccd\u0caf\u0cbe\u0c82\u0c95\u0ccd"}}, {"type": "node", "id": 10036648017, "lat": 12.942727, "lon": 77.6222852, "tags": {"name": "My Tech World", "shop": "computer"}}, {"type": "node", "id": 10036648018, "lat": 12.9423709, "lon": 77.6226909, "tags": {"name": "Just Dogs", "shop": "pet"}}, {"type": "node", "id": 10036648022, "lat": 12.941012, "lon": 77.6241505, "tags": {"amenity": "restaurant", "name": "The Coorg Food Company"}}, {"type": "node", "id": 10036648023, "lat": 12.9408608, "lon": 77.6243138, "tags": {"amenity": "restaurant", "check_date": "2023-11-30", "name": "Biriyani Depot"}}, {"type": "node", "id": 10036648024, "lat": 12.9405717, "lon": 77.6246062, "tags": {"amenity": "atm", "brand": "Axis Bank", "brand:wikidata": "Q2003549", "operator": "Axis Bank", "operator:wikidata": "Q2003549"}}, {"type": "node", "id": 10036648117, "lat": 12.9423282, "lon": 77.6226526, "tags": {"amenity": "bank", "name": "HDFC Home Loans"}}, {"type": "node", "id": 10036648118, "lat": 12.9425012, "lon": 77.6229374, "tags": {"name": "H.K.G.N Bike Mechanic", "shop": "motorcycle_repair"}}, {"type": "node", "id": 10036648119, "lat": 12.9417161, "lon": 77.6233404, "tags": {"amenity": "bank", "atm": "yes", "brand": "Ujjivan Small Finance Bank", "brand:wikidata": "Q42529272", "name": "Ujjivan Small Finance Bank"}}, {"type": "node", "id": 10036648121, "lat": 12.940938, "lon": 77.6241703, "tags": {"amenity": "pharmacy", "healthcare": "pharmacy", "name": "Vitamin Galaxy"}}, {"type": "node", "id": 10036648122, "lat": 12.9409106, "lon": 77.6242697, "tags": {"amenity": "cafe", "name": "Tea Coffee House"}}, {"type": "node", "id": 10036648217, "lat": 12.9422163, "lon": 77.6228522, "tags": {"amenity": "bank", "brand": "RBL Bank", "brand:wikidata": "Q13120398", "name": "RBL Bank"}}, {"type": "node", "id": 10036648218, "lat": 12.9419888, "lon": 77.6230815, "tags": {"amenity": "restaurant", "name": "Madurai Restaurant"}}, {"type": "node", "id": 10036648219, "lat": 12.9414494, "lon": 77.6236346, "tags": {"amenity": "cafe", "check_date": "2023-11-30", "name": "Cafe Five Guys"}}, {"type": "node", "id": 10036648317, "lat": 12.942267, "lon": 77.6228332, "tags": {"amenity": "atm", "brand": "RBL Bank", "brand:wikidata": "Q13120398", "operator": "RBL Bank", "operator:wikidata": "Q13120398"}}, {"type": "node", "id": 10036648318, "lat": 12.9420181, "lon": 77.6229498, "tags": {"amenity": "bank", "brand": "HDFC Bank", "brand:wikidata": "Q631047", "name": "HDFC Bank", "short_name": "HDFC"}}, {"type": "node", "id": 10036648417, "lat": 12.9420232, "lon": 77.6230093, "tags": {"amenity": "atm", "brand": "HDFC Bank", "brand:wikidata": "Q631047", "operator": "HDFC Bank", "operator:wikidata": "Q631047", "short_name": "HDFC"}}, {"type": "node", "id": 10036648517, "lat": 12.9415824, "lon": 77.6235081, "tags": {"amenity": "dentist", "name": "Sabka Dentist"}}, {"type": "node", "id": 10036648518, "lat": 12.9413673, "lon": 77.6240803, "tags": {"name": "Puncture Shop", "shop": "motorcycle"}}, {"type": "node", "id": 10036648617, "lat": 12.9408618, "lon": 77.6242481, "tags": {"name": "Retreat Spa & Salon", "shop": "massage"}}, {"type": "node", "id": 10047410317, "lat": 12.9398397, "lon": 77.6252767, "tags": {"amenity": "bank", "name": "Utkarsh Small Finance Bank"}}, {"type": "node", "id": 10047410318, "lat": 12.9398703, "lon": 77.6252571, "tags": {"amenity": "atm", "operator": "Utkarsh Small Finance Bank"}}, {"type": "node", "id": 10047410320, "lat": 12.9407259, "lon": 77.6268205, "tags": {"name": "R.K.Mens Saloon", "shop": "hairdresser"}}, {"type": "node", "id": 10047410321, "lat": 12.9407018, "lon": 77.6267911, "tags": {"amenity": "fast_food", "name": "Shree Ganesh Juice Centre"}}, {"type": "node", "id": 10047410417, "lat": 12.9399395, "lon": 77.6251611, "tags": {"amenity": "bank", "brand": "IndusInd Bank", "brand:wikidata": "Q2040323", "name": "IndusInd Bank"}}, {"type": "node", "id": 10047410418, "lat": 12.9400847, "lon": 77.6250647, "tags": {"name": "Tyre Port", "shop": "tyres"}}, {"type": "node", "id": 10047410420, "lat": 12.9400354, "lon": 77.6254608, "tags": {"amenity": "bar", "name": "Sixtyy"}}, {"type": "node", "id": 10047410517, "lat": 12.9399297, "lon": 77.6252027, "tags": {"amenity": "atm", "brand": "IndusInd Bank", "brand:wikidata": "Q2040323", "operator": "IndusInd Bank", "operator:wikidata": "Q2040323"}}, {"type": "node", "id": 10047410617, "lat": 12.9402358, "lon": 77.6248865, "tags": {"amenity": "fast_food", "brand": "Domino's", "brand:wikidata": "Q839466", "cuisine": "pizza", "name": "Domino's", "takeaway": "yes"}}, {"type": "node", "id": 10047410817, "lat": 12.9403001, "lon": 77.6252477, "tags": {"name": "Perfect Yamaha", "shop": "motorcycle"}}, {"type": "node", "id": 10047410818, "lat": 12.9402228, "lon": 77.6252938, "tags": {"name": "Raju Honda", "shop": "motorcycle"}}, {"type": "node", "id": 10047410819, "lat": 12.9406228, "lon": 77.6261245, "tags": {"name": "Flora Beauty Salon", "shop": "beauty"}}, {"type": "node", "id": 10047410820, "lat": 12.9405384, "lon": 77.6261865, "tags": {"name": "Hello Mobile", "shop": "mobile_phone"}}, {"type": "node", "id": 10068868470, "lat": 12.9322967, "lon": 77.6345363}, {"type": "node", "id": 10068868471, "lat": 12.9321679, "lon": 77.6347941}, {"type": "node", "id": 10068868472, "lat": 12.9320067, "lon": 77.6347093}, {"type": "node", "id": 10068868473, "lat": 12.9321355, "lon": 77.6344515}, {"type": "node", "id": 10068956859, "lat": 12.9407577, "lon": 77.6202069, "tags": {"amenity": "cafe", "name": "Blue Tokai"}}, {"type": "node", "id": 10068956880, "lat": 12.9365956, "lon": 77.6273239, "tags": {"name": "icycle.in", "shop": "bicycle", "website": "https://icycle.in/"}}, {"type": "node", "id": 10068956881, "lat": 12.9367647, "lon": 77.6271187, "tags": {"name": "VLCC", "shop": "beauty"}}, {"type": "node", "id": 10075730590, "lat": 12.932216, "lon": 77.6321306, "tags": {"amenity": "restaurant", "name": "La Pino'z Pizza", "website": "https://lapinozpizza.in/"}}, {"type": "node", "id": 10111481929, "lat": 12.9353206, "lon": 77.6299347, "tags": {"amenity": "restaurant", "name": "Login2Eat.com"}}, {"type": "node", "id": 10111481930, "lat": 12.9352769, "lon": 77.6299633, "tags": {"name": "KM Shukla Store", "shop": "convenience"}}, {"type": "node", "id": 10111481931, "lat": 12.9350889, "lon": 77.6300415, "tags": {"name": "Sri Bhuvaneswari Laundry", "shop": "laundry"}}, {"type": "node", "id": 10111497269, "lat": 12.9355706, "lon": 77.6298416, "tags": {"name": "Sri Manjunatha 2 Wheeler Repair", "shop": "motorcycle_repair"}}, {"type": "node", "id": 10114122210, "lat": 12.9391778, "lon": 77.6258972, "tags": {"name": "Parameshwari Traders", "shop": "department_store"}}, {"type": "node", "id": 10114122211, "lat": 12.938973, "lon": 77.6259626, "tags": {"name": "Lenovo", "shop": "computer"}}, {"type": "node", "id": 10114122212, "lat": 12.9390389, "lon": 77.6259421, "tags": {"name": "Realme", "shop": "mobile_phone"}}, {"type": "node", "id": 10114122213, "lat": 12.9396583, "lon": 77.6257225, "tags": {"name": "Auto Style", "shop": "car_parts"}}, {"type": "node", "id": 10114122214, "lat": 12.9392459, "lon": 77.6258767, "tags": {"name": "Acer Mall", "operator": "Maxware Technologies", "shop": "computer"}}, {"type": "node", "id": 10114122215, "lat": 12.939109, "lon": 77.6259207, "tags": {"name": "Fatima", "shop": "bakery"}}, {"type": "node", "id": 10114142767, "lat": 12.9395545, "lon": 77.6257533, "tags": {"name": "Khanate Bespoke Fashion", "shop": "clothes"}}, {"type": "node", "id": 10114142768, "lat": 12.9394907, "lon": 77.6257893, "tags": {"amenity": "pharmacy", "healthcare": "pharmacy", "name": "Ramdev Medical"}}, {"type": "node", "id": 10114180706, "lat": 12.9383445, "lon": 77.6259659, "tags": {"amenity": "atm", "brand": "IDFC First Bank", "brand:wikidata": "Q22031467", "operator": "IDFC First Bank", "operator:wikidata": "Q22031467"}}, {"type": "node", "id": 10114180707, "lat": 12.9385446, "lon": 77.6261803, "tags": {"name": "The Detailing Mafia", "shop": "car_repair"}}, {"type": "node", "id": 10114180708, "lat": 12.9387545, "lon": 77.6260701, "tags": {"name": "Dell Exclusive Store", "shop": "computer"}}, {"type": "node", "id": 10114180709, "lat": 12.938313, "lon": 77.6259211, "tags": {"amenity": "bank", "brand": "IDFC First Bank", "brand:wikidata": "Q22031467", "name": "IDFC First Bank"}}, {"type": "node", "id": 10114180710, "lat": 12.93869, "lon": 77.6261024, "tags": {"name": "Asus", "name:kn": "\u0c86\u0cb8\u0cc1\u0cb8\u0ccd", "operator": "Mega IT Store", "shop": "computer"}}, {"type": "node", "id": 10114207612, "lat": 12.9388064, "lon": 77.6260422, "tags": {"name": "Bhumi Spirit", "shop": "alcohol"}}, {"type": "node", "id": 10219532237, "lat": 12.9351115, "lon": 77.6292155, "tags": {"addr:city": "Bangalore", "addr:country": "IN", "addr:housenumber": "974", "addr:postcode": "560034", "addr:street": "80 Feet Road", "addr:suburb": "Koramangala", "amenity": "restaurant", "contact:facebook": "altpizza.in", "contact:instagram": "altpizza.in", "cuisine": "pizza", "delivery": "yes", "level": "1", "name": "Alt Pizza", "opening_hours": "12:30-22:30", "phone": "+91 8123892268", "takeaway": "yes", "website": "https://www.altpizza.co.in/"}}, {"type": "node", "id": 10295532215, "lat": 12.927071, "lon": 77.6299283}, {"type": "node", "id": 10295532216, "lat": 12.926072, "lon": 77.628726}, {"type": "node", "id": 10295532217, "lat": 12.9259364, "lon": 77.6295635}, {"type": "node", "id": 10295532218, "lat": 12.9253915, "lon": 77.6294752}, {"type": "node", "id": 10295532219, "lat": 12.9271467, "lon": 77.6294595}, {"type": "node", "id": 10295532223, "lat": 12.9255548, "lon": 77.6286523}, {"type": "node", "id": 10295532224, "lat": 12.9252685, "lon": 77.6300947}, {"type": "node", "id": 10314122725, "lat": 12.9347397, "lon": 77.6296212, "tags": {"amenity": "cafe", "brand": "Third Wave Coffee Roasters", "brand:wikidata": "Q7785004", "cuisine": "coffee_shop", "delivery": "yes", "name": "Third Wave Coffee Roasters", "operator": "Third Wave Coffee Roasters", "takeaway": "yes"}}, {"type": "node", "id": 10649347387, "lat": 12.935354, "lon": 77.6284155, "tags": {"amenity": "cafe", "delivery": "yes", "name": "Maverick and Farmer Coffee", "takeaway": "yes", "website": "https://www.maverickandfarmer.com/"}}, {"type": "node", "id": 10728008693, "lat": 12.933281, "lon": 77.6270744, "tags": {"amenity": "restaurant", "contact:facebook": "154breakfastclub", "cuisine": "american", "delivery": "yes", "name": "154 Breakfast Club", "takeaway": "yes"}}, {"type": "node", "id": 10797060722, "lat": 12.9404553, "lon": 77.6250883}, {"type": "node", "id": 10819508449, "lat": 12.9350462, "lon": 77.6249939, "tags": {"addr:housenumber": "39", "addr:street": "8th Main Road", "name": "Coorg Fresh Vegetables and Fruits", "phone": "+919620848497", "shop": "greengrocer"}}, {"type": "node", "id": 10819535526, "lat": 12.9346147, "lon": 77.6250274, "tags": {"addr:housenumber": "423", "addr:street": "8th Main Road", "brand": "Bhima Jewellers", "brand:wikidata": "Q17004889", "name": "Bhima Jewellers", "shop": "jewelry", "website": "https://bhima.com"}}, {"type": "node", "id": 10873245739, "lat": 12.9423062, "lon": 77.6227822, "tags": {"name": "Aubree", "shop": "chocolate", "website": "https://shop.aubree.in"}}, {"type": "node", "id": 10924790334, "lat": 12.9328588, "lon": 77.6309864, "tags": {"amenity": "restaurant", "contact:facebook": "pastastreet", "contact:instagram": "pasta.street", "cuisine": "pasta", "email": "info@pastastreet.co.in", "name": "Pasta Street", "phone": "+91 9266844026", "website": "https://pastastreet.co.in/"}}, {"type": "node", "id": 10924790335, "lat": 12.9318674, "lon": 77.6320308, "tags": {"amenity": "bar", "name": "Chin Lung Resto Bar"}}, {"type": "node", "id": 10924790336, "lat": 12.9313575, "lon": 77.6324685, "tags": {"level": "1", "name": "Truefitt & Hill", "payment:credit_cards": "yes", "payment:debit_cards": "yes", "shop": "hairdresser", "website": "https://www.truefittandhill.in/", "wheelchair": "no"}}, {"type": "node", "id": 11034486736, "lat": 12.9255788, "lon": 77.6362412, "tags": {"amenity": "bank", "brand": "Bandhan Bank", "brand:wikidata": "Q19882235", "check_date": "2023-07-08", "name": "Bandhan Bank"}}, {"type": "node", "id": 11061435984, "lat": 12.9336416, "lon": 77.628382, "tags": {"contact:instagram": "nariandkage", "name": "Nari & K\u0101ge", "shop": "cheese"}}, {"type": "node", "id": 11106992211, "lat": 12.9304908, "lon": 77.6229826, "tags": {"name": "Kanti Sweets", "shop": "confectionery"}}, {"type": "node", "id": 11117270552, "lat": 12.937942, "lon": 77.6262087, "tags": {"amenity": "cafe", "brand": "Glen's Bakehouse", "delivery": "yes", "name": "Glen's Bakehouse", "shop": "pastry", "takeaway": "yes"}}, {"type": "node", "id": 11277885669, "lat": 12.9398026, "lon": 77.625213, "tags": {"amenity": "restaurant", "contact:instagram": "ssurablr", "name": "Ssura"}}, {"type": "node", "id": 11277885724, "lat": 12.9291597, "lon": 77.6273802, "tags": {"amenity": "restaurant", "contact:instagram": "theverandahkoramangala", "name": "The Verandah"}}, {"type": "node", "id": 11299999642, "lat": 12.935429, "lon": 77.6284361, "tags": {"brand": "BMW", "brand:wikidata": "Q249173", "name": "JSP Motorrad", "shop": "motorcycle"}}, {"type": "node", "id": 11385511624, "lat": 12.9262798, "lon": 77.6332784, "tags": {"amenity": "bank", "check_date": "2023-11-30", "name": "Bharat Bank"}}, {"type": "node", "id": 11385511625, "lat": 12.9271334, "lon": 77.6332033, "tags": {"amenity": "cafe", "check_date": "2023-11-30", "name": "Chai Fast"}}, {"type": "node", "id": 11385511629, "lat": 12.9302112, "lon": 77.6329689, "tags": {"check_date": "2024-01-10", "name": "Wooden Street", "shop": "furniture"}}, {"type": "node", "id": 11385511630, "lat": 12.9310729, "lon": 77.6326552, "tags": {"amenity": "cafe", "brand": "Barista", "brand:wikidata": "Q644735", "check_date": "2023-11-30", "cuisine": "coffee_shop", "name": "Barista", "takeaway": "yes"}}, {"type": "node", "id": 11385511631, "lat": 12.9311872, "lon": 77.6326024, "tags": {"amenity": "fast_food", "brand": "Domino's", "brand:wikidata": "Q839466", "check_date": "2023-11-30", "cuisine": "pizza", "name": "Domino's", "takeaway": "yes"}}, {"type": "node", "id": 11385511632, "lat": 12.9323886, "lon": 77.6314845, "tags": {"amenity": "cafe", "brand": "Starbucks", "brand:wikidata": "Q37158", "check_date": "2023-11-30", "cuisine": "coffee_shop", "name": "Starbucks", "official_name": "Starbucks Coffee", "takeaway": "yes"}}, {"type": "node", "id": 11385511633, "lat": 12.9343675, "lon": 77.630024, "tags": {"amenity": "bank", "brand": "Jana Small Finance Bank", "brand:wikidata": "Q65122274", "check_date": "2023-11-30", "name": "Jana Small Finance Bank"}}, {"type": "node", "id": 11385511634, "lat": 12.9346521, "lon": 77.6297029, "tags": {"check_date": "2023-11-30", "name": "Duroflex", "shop": "bed"}}, {"type": "node", "id": 11385580169, "lat": 12.9353516, "lon": 77.6289478, "tags": {"check_date": "2023-11-30", "name": "Sleepwell", "shop": "bed"}}, {"type": "node", "id": 11385580170, "lat": 12.9355461, "lon": 77.62827, "tags": {"brand": "Mercedes-Benz", "brand:wikidata": "Q36008", "check_date": "2023-11-30", "name": "Mercedes Benz", "shop": "car"}}, {"type": "node", "id": 11385580171, "lat": 12.9366403, "lon": 77.6277623, "tags": {"brand": "Sony Centre", "brand:wikidata": "Q3437496", "check_date": "2024-03-02", "name": "Sony Centre", "operator": "Haavit Retail", "shop": "electronics"}}, {"type": "node", "id": 11385580172, "lat": 12.9363775, "lon": 77.6274783, "tags": {"check_date": "2023-11-30", "name": "imagine", "shop": "electronics"}}, {"type": "node", "id": 11385580173, "lat": 12.9363539, "lon": 77.6274229, "tags": {"check_date": "2023-11-30", "name": "Amona", "shop": "beauty"}}, {"type": "node", "id": 11385580174, "lat": 12.9440443, "lon": 77.6207612, "tags": {"amenity": "fast_food", "check_date": "2023-11-30", "name": "Khana Junction"}}, {"type": "node", "id": 11385580175, "lat": 12.9364323, "lon": 77.6273237, "tags": {"check_date": "2023-11-30", "name": "Reliance Jewels", "shop": "jewelry"}}, {"type": "node", "id": 11385580176, "lat": 12.9373048, "lon": 77.626698, "tags": {"check_date": "2023-11-30", "name": "rentomojo.com", "shop": "furniture"}}, {"type": "node", "id": 11385580177, "lat": 12.9374519, "lon": 77.6265817, "tags": {"amenity": "pharmacy", "check_date": "2023-11-30", "healthcare": "pharmacy", "name": "Lavish Pharma"}}, {"type": "node", "id": 11385580178, "lat": 12.9374048, "lon": 77.6266273, "tags": {"check_date": "2023-11-30", "name": "Satyam Office Suppliers", "shop": "stationery"}}, {"type": "node", "id": 11385580180, "lat": 12.9381932, "lon": 77.6259997, "tags": {"check_date": "2023-11-30", "name": "Mega IT Store", "shop": "electronics"}}, {"type": "node", "id": 11385580185, "lat": 12.9408888, "lon": 77.6242864, "tags": {"amenity": "restaurant", "check_date": "2023-11-30", "name": "The Coorg Food Company"}}, {"type": "node", "id": 11385580186, "lat": 12.9418935, "lon": 77.6231805, "tags": {"check_date": "2023-11-30", "name": "Satvik Aahar", "shop": "supermarket"}}, {"type": "node", "id": 11385580187, "lat": 12.9425114, "lon": 77.6225024, "tags": {"check_date": "2023-11-30", "name": "Dell", "shop": "computer"}}, {"type": "node", "id": 11385580188, "lat": 12.9431166, "lon": 77.6218102, "tags": {"brand": "Bajaj", "brand:wikidata": "Q10910065", "check_date": "2023-11-30", "name": "Bajaj", "name:kn": "\u0cac\u0c9c\u0cbe\u0c9c\u0ccd", "shop": "motorcycle"}}, {"type": "node", "id": 11385580189, "lat": 12.9438577, "lon": 77.6209994, "tags": {"amenity": "fast_food", "check_date": "2023-11-30", "name": "Sri Udupi Utsav"}}, {"type": "node", "id": 11385580190, "lat": 12.9452528, "lon": 77.6198347, "tags": {"brand": "Toni & Guy", "brand:wikidata": "Q324784", "check_date": "2023-11-30", "name": "Toni & Guy", "shop": "hairdresser"}}, {"type": "node", "id": 11397803296, "lat": 12.9268376, "lon": 77.6332674, "tags": {"check_date": "2023-12-06", "name": "JusBake", "shop": "bakery"}}, {"type": "node", "id": 11493493803, "lat": 12.937206, "lon": 77.6272579, "tags": {"name": "Sapphire Toys", "shop": "toys"}}, {"type": "node", "id": 11494201368, "lat": 12.933798, "lon": 77.6299607, "tags": {"check_date": "2024-01-10", "name": "Electronics Bazaar", "shop": "computer"}}, {"type": "node", "id": 11505691627, "lat": 12.935764, "lon": 77.6285398, "tags": {"check_date": "2024-01-10", "name": "Helios", "shop": "watches"}}, {"type": "node", "id": 11505691628, "lat": 12.936888, "lon": 77.6270479, "tags": {"check_date": "2024-01-10", "name": "Lighting Emporio", "shop": "lighting"}}, {"type": "node", "id": 11505691629, "lat": 12.9372703, "lon": 77.6266577, "tags": {"check_date": "2024-01-10", "name": "GIVA", "shop": "jewelry"}}, {"type": "node", "id": 11505695829, "lat": 12.9266025, "lon": 77.6332815, "tags": {"brand": "LG", "brand:wikidata": "Q162345", "check_date": "2024-01-10", "name": "LG", "shop": "electronics"}}, {"type": "node", "id": 11505695830, "lat": 12.9268066, "lon": 77.6332725, "tags": {"amenity": "cafe", "check_date": "2024-01-10", "name": "Tatvika Cafe"}}, {"type": "node", "id": 11505695833, "lat": 12.9320555, "lon": 77.6318284, "tags": {"check_date": "2024-01-10", "shop": "garden_centre"}}, {"type": "node", "id": 11505695835, "lat": 12.9338285, "lon": 77.629995, "tags": {"check_date": "2024-01-10", "name": "The Organic World", "organic": "only", "shop": "supermarket"}}, {"type": "node", "id": 11505695837, "lat": 12.9345066, "lon": 77.6293607, "tags": {"check_date": "2024-01-10", "name": "Kurl-On", "shop": "bed"}}, {"type": "node", "id": 11505724627, "lat": 12.9402757, "lon": 77.6248468, "tags": {"amenity": "fast_food", "check_date": "2024-01-10", "cuisine": "juice", "name": "Sri Ganesh Juice Junction"}}, {"type": "node", "id": 11505756828, "lat": 12.9466331, "lon": 77.6186349, "tags": {"check_date": "2024-01-10", "name": "Classic Men's Salon", "shop": "hairdresser"}}, {"type": "node", "id": 11543569684, "lat": 12.9252233, "lon": 77.6340887}, {"type": "node", "id": 11543569685, "lat": 12.9252322, "lon": 77.6341672}, {"type": "node", "id": 11543569686, "lat": 12.9253379, "lon": 77.6341545}, {"type": "node", "id": 11543569687, "lat": 12.925329, "lon": 77.634076}, {"type": "node", "id": 11659905691, "lat": 12.9295032, "lon": 77.6326634, "tags": {"name": "Cut & Style Salon", "shop": "hairdresser"}}, {"type": "node", "id": 11659905692, "lat": 12.930344, "lon": 77.6332226, "tags": {"amenity": "pharmacy", "brand": "MedPlus", "brand:wikidata": "Q65684234", "healthcare": "pharmacy", "name": "MedPlus", "name:kn": "\u0cae\u0cc6\u0ca1\u0ccd\u200d\u0caa\u0ccd\u0cb2\u0cb8\u0ccd"}}, {"type": "node", "id": 11659905693, "lat": 12.9307348, "lon": 77.633114, "tags": {"amenity": "cafe", "brand": "Chai Point", "brand:wikidata": "Q28173415", "check_date": "2025-05-25", "cuisine": "coffee_shop", "name": "Chai Point", "takeaway": "yes"}}, {"type": "node", "id": 11659905694, "lat": 12.9309544, "lon": 77.6330697, "tags": {"amenity": "restaurant", "name": "Gabru Di Chaap"}}, {"type": "node", "id": 11659905695, "lat": 12.9311505, "lon": 77.6325856, "tags": {"level": "1", "name": "YLG Salon", "shop": "beauty"}}, {"type": "node", "id": 11659905696, "lat": 12.9314093, "lon": 77.6325158, "tags": {"amenity": "bank", "atm": "yes", "brand": "ICICI Bank", "brand:wikidata": "Q1653258", "name": "ICICI Bank", "name:kn": "\u0c90\u0cb8\u0cbf\u0c90\u0cb8\u0cbf\u0c90 \u0cac\u0ccd\u0caf\u0cbe\u0c82\u0c95\u0cc1", "short_name": "ICICI"}}, {"type": "node", "id": 11659905697, "lat": 12.9308067, "lon": 77.6327707, "tags": {"amenity": "bank", "name": "SVC Cooperative Bank Ltd"}}, {"type": "node", "id": 11659905698, "lat": 12.9308262, "lon": 77.6330783, "tags": {"addr:housenumber": "1025", "addr:street": "80 Feet Road", "amenity": "fast_food", "cuisine": "kebab;burger;shawarma", "diet:halal": "yes", "diet:meat": "yes", "diet:non-vegetarian": "yes", "drive_through": "no", "name": "Al Taza"}}, {"type": "node", "id": 11659905699, "lat": 12.930842, "lon": 77.633114, "tags": {"name": "Lotus Unisex Spa", "shop": "massage"}}, {"type": "node", "id": 11684016163, "lat": 12.9252665, "lon": 77.6341144, "tags": {"amenity": "fuel", "check_date": "2024-03-02", "name": "Gail Gas"}}, {"type": "node", "id": 11684016164, "lat": 12.9361379, "lon": 77.6277548, "tags": {"check_date": "2024-03-02", "second_hand": "only", "shop": "car"}}, {"type": "node", "id": 11684016165, "lat": 12.9368734, "lon": 77.6275483, "tags": {"check_date": "2024-03-02", "name": "GKB Opticals", "shop": "optician"}}, {"type": "node", "id": 11684016166, "lat": 12.9367572, "lon": 77.6276099, "tags": {"amenity": "restaurant", "check_date": "2024-03-02", "name": "Royal Tandoor"}}, {"type": "node", "id": 11684016167, "lat": 12.9369935, "lon": 77.6273987, "tags": {"check_date": "2024-03-02", "name": "iworld", "shop": "electronics"}}, {"type": "node", "id": 11758608876, "lat": 12.9313963, "lon": 77.6234718, "tags": {"addr:housenumber": "82", "addr:street": "7th Cross Road", "amenity": "cafe", "check_date": "2024-03-24", "contact:instagram": "https://www.instagram.com/dailybakehouse", "name": "Daily Bakehouse", "opening_hours": "08:00-23:00", "shop": "bakery", "website": "https://dailybakehouse.in"}}, {"type": "node", "id": 11758608877, "lat": 12.9313462, "lon": 77.6234605, "tags": {"addr:housenumber": "82", "addr:street": "7th Cross Road", "amenity": "restaurant", "check_date": "2024-03-24", "contact:instagram": "https://www.instagram.com/just.loaf", "cuisine": "american", "name": "Just Loaf", "website": "https://justloaf.in"}}, {"type": "node", "id": 11780212783, "lat": 12.9376205, "lon": 77.6243795, "tags": {"amenity": "cafe", "name": "Cafe Reset"}}, {"type": "node", "id": 11821872330, "lat": 12.9262749, "lon": 77.630462}, {"type": "node", "id": 11821872331, "lat": 12.9261299, "lon": 77.6303511}, {"type": "node", "id": 11821872334, "lat": 12.9272569, "lon": 77.6307892}, {"type": "node", "id": 11869110972, "lat": 12.925273, "lon": 77.6345868, "tags": {"addr:street": "1st cross, 1st block Koramangala", "name": "Hypons Hotel", "place": "Bengaluru", "postal_code": "560034", "tourism": "hotel"}}, {"type": "node", "id": 11968859178, "lat": 12.9331176, "lon": 77.6307088, "tags": {"addr:city": "Bengaluru", "addr:country": "IN", "addr:housenumber": "749", "addr:postcode": "560034", "addr:street": "80 Feet Road", "addr:suburb": "Koramangala", "amenity": "bar", "contact:instagram": "pbbunnybar", "name": "Bunny Bar"}}, {"type": "node", "id": 11968859180, "lat": 12.9357945, "lon": 77.6280548, "tags": {"addr:city": "Bengaluru", "addr:country": "IN", "addr:housenumber": "612", "addr:postcode": "560034", "addr:street": "80 Feet Road", "addr:suburb": "Koramangala", "amenity": "cafe", "contact:instagram": "roastea.outlets", "delivery": "yes", "name": "Roastea", "takeaway": "yes", "website": "https://roastea.in/"}}, {"type": "node", "id": 12031617546, "lat": 12.9293372, "lon": 77.6218922, "tags": {"brand": "Volkswagen", "brand:wikidata": "Q246", "name": "Volkswagen City Store", "shop": "car"}}, {"type": "node", "id": 12074449282, "lat": 12.9243953, "lon": 77.6289453}, {"type": "node", "id": 12078376833, "lat": 12.9408051, "lon": 77.6241773, "tags": {"amenity": "restaurant", "contact:instagram": "cafezubaan", "cuisine": "arab", "delivery": "yes", "name": "Cafe Zubaan", "takeaway": "yes"}}, {"type": "node", "id": 12083603347, "lat": 12.9322948, "lon": 77.6316027, "tags": {"amenity": "bar", "name": "The Fixx Bar"}}, {"type": "node", "id": 12083603348, "lat": 12.9325502, "lon": 77.6318589, "tags": {"amenity": "cafe", "level": "3", "name": "Dialogues Cafe", "outdoor_seating": "yes"}}, {"type": "node", "id": 12083603349, "lat": 12.931798, "lon": 77.632117, "tags": {"amenity": "cafe", "name": "Helloo Dilli"}}, {"type": "node", "id": 12083603350, "lat": 12.9315093, "lon": 77.6324208, "tags": {"name": "Zeiss Vision Center", "shop": "optician"}}, {"type": "node", "id": 12083603351, "lat": 12.9317143, "lon": 77.6322196, "tags": {"amenity": "bank", "brand": "Bandhan Bank", "brand:wikidata": "Q19882235", "name": "Bandhan Bank"}}, {"type": "node", "id": 12083603353, "lat": 12.9315158, "lon": 77.6328365, "tags": {"name": "enrich", "shop": "beauty"}}, {"type": "node", "id": 12083603354, "lat": 12.9313995, "lon": 77.6329049, "tags": {"amenity": "restaurant", "cuisine": "thai", "name": "Thai Basil"}}, {"type": "node", "id": 12115149767, "lat": 12.9332839, "lon": 77.6310669, "tags": {"addr:postcode": "560034", "addr:street": "80 Feet Road", "amenity": "bank", "atm": "yes", "brand": "Kotak Mahindra Bank", "brand:wikidata": "Q2040404", "name": "Kotak Mahindra Bank"}}, {"type": "node", "id": 12115149768, "lat": 12.9333297, "lon": 77.6310562, "tags": {"addr:postcode": "560034", "addr:street": "80 Feet Road", "amenity": "restaurant", "cuisine": "pizza", "level": "1", "name": "Onesta"}}, {"type": "node", "id": 12115149770, "lat": 12.9331813, "lon": 77.6311695, "tags": {"addr:postcode": "560034", "addr:street": "80 Feet Road", "amenity": "bank", "atm": "yes", "brand": "RBL Bank", "brand:wikidata": "Q13120398", "name": "RBL Bank"}}, {"type": "node", "id": 12115149772, "lat": 12.9330896, "lon": 77.6312388, "tags": {"amenity": "atm", "brand": "State Bank of India", "brand:wikidata": "Q1340361", "operator": "State Bank of India", "operator:wikidata": "Q1340361", "short_name": "SBI"}}, {"type": "node", "id": 12115149773, "lat": 12.9330648, "lon": 77.6312713, "tags": {"addr:postcode": "560034", "addr:street": "80 Feet Road", "amenity": "bank", "brand": "State Bank of India", "brand:wikidata": "Q1340361", "level": "1", "name": "State Bank of India", "short_name": "SBI"}}, {"type": "node", "id": 12115149775, "lat": 12.9323246, "lon": 77.6320872, "tags": {"addr:postcode": "560034", "addr:street": "80 Feet Road", "level": "1", "name": "Noodira Salon", "shop": "beauty"}}, {"type": "node", "id": 12115149777, "lat": 12.9322049, "lon": 77.6321901, "tags": {"addr:postcode": "560034", "addr:street": "80 Feet Road", "amenity": "dentist", "healthcare": "dentist", "level": "1", "name": "Clove Dental"}}, {"type": "node", "id": 12115149778, "lat": 12.9321791, "lon": 77.6321694, "tags": {"addr:postcode": "560034", "addr:street": "80 Feet Road", "name": "Bottle Store", "shop": "alcohol"}}, {"type": "node", "id": 12115251881, "lat": 12.9295347, "lon": 77.6308153, "tags": {"addr:postcode": "560034", "addr:street": "7th Cross Road", "amenity": "cafe", "name": "Cafe OTW On The Way"}}, {"type": "node", "id": 12115251882, "lat": 12.9296138, "lon": 77.6316244, "tags": {"addr:postcode": "560034", "addr:street": "7th Cross Road", "amenity": "clinic", "healthcare": "clinic", "healthcare:speciality": "fertility", "name": "Cherish Fertinity Clinic"}}, {"type": "node", "id": 12115251883, "lat": 12.9300397, "lon": 77.6332545, "tags": {"addr:postcode": "560034", "addr:street": "80 Feet Road", "name": "DriveX NIAX Motors", "second_hand": "only", "shop": "motorcycle"}}, {"type": "node", "id": 12115251884, "lat": 12.9295327, "lon": 77.6320146, "tags": {"addr:postcode": "560034", "addr:street": "7th Cross Road", "name": "Nanesh Unisex Salon", "shop": "beauty"}}, {"type": "node", "id": 12115251885, "lat": 12.9295732, "lon": 77.631965, "tags": {"addr:postcode": "560034", "addr:street": "7th Cross Road", "name": "Ananya Comforts", "tourism": "hotel"}}, {"type": "node", "id": 12115251886, "lat": 12.9295262, "lon": 77.6319228, "tags": {"addr:postcode": "560034", "addr:street": "7th Cross Road", "amenity": "cafe", "name": "Kaffe 399"}}, {"type": "node", "id": 12115251888, "lat": 12.9306501, "lon": 77.6331509, "tags": {"addr:postcode": "560034", "addr:street": "80 Feet Road", "name": "Pulito Wash", "shop": "laundry"}}, {"type": "node", "id": 12115251889, "lat": 12.9305861, "lon": 77.6331696, "tags": {"addr:postcode": "560034", "addr:street": "80 Feet Road", "amenity": "cafe", "cuisine": "waffle", "name": "Belgian Waffle"}}, {"type": "node", "id": 12129005537, "lat": 12.9308818, "lon": 77.6327024, "tags": {"contact:instagram": "lokomadofficial", "name": "LokoMAD", "shop": "pastry"}}, {"type": "node", "id": 12129019639, "lat": 12.9408358, "lon": 77.6202589, "tags": {"amenity": "cafe", "delivery": "no", "name": "The Peck", "takeaway": "yes"}}, {"type": "node", "id": 12154759019, "lat": 12.9312568, "lon": 77.623582, "tags": {"amenity": "bank", "atm": "yes", "brand": "HDFC Bank", "brand:wikidata": "Q631047", "name": "HDFC Bank", "name:kn": "\u0c8e\u0c9a\u0ccd \u0ca1\u0cbf \u0c8e\u0cab\u0ccd \u0cb8\u0cbf", "short_name": "HDFC"}}, {"type": "node", "id": 12154759020, "lat": 12.9310666, "lon": 77.6240212, "tags": {"amenity": "bank", "atm": "yes", "brand": "Axis Bank", "brand:wikidata": "Q2003549", "name": "Axis Bank", "name:kn": "\u0c86\u0c95\u0ccd\u0cb8\u0cbf\u0cb8\u0ccd \u0cac\u0ccd\u0caf\u0cbe\u0c82\u0c95\u0ccd"}}, {"type": "node", "id": 12208448673, "lat": 12.9333097, "lon": 77.6270074, "tags": {"amenity": "cafe", "contact:instagram": "brunchproject.blr", "name": "Brunch Project", "opening_hours": "Mo-Su 09:00-20:00"}}, {"type": "node", "id": 12229924652, "lat": 12.93678, "lon": 77.6249117, "tags": {"amenity": "restaurant", "check_date": "2024-10-06", "cuisine": "indian", "name": "Mitra Cafe", "payment:cash": "yes", "payment:credit_cards": "yes", "payment:debit_cards": "yes", "wheelchair": "yes"}}, {"type": "node", "id": 12248318141, "lat": 12.9340933, "lon": 77.6297208, "tags": {"name": "Wire up", "shop": "musical_instrument"}}, {"type": "node", "id": 12260570041, "lat": 12.9421337, "lon": 77.6219393, "tags": {"amenity": "restaurant", "name": "Yara Cafe"}}, {"type": "node", "id": 12313885295, "lat": 12.9383091, "lon": 77.6271996, "tags": {"addr:city": "Ejipura", "addr:district": "Bengaluru", "addr:housenumber": "54/A", "addr:postcode": "560095", "addr:street": "Venkata Reddy Layout", "brand": "Worksupp", "name": "Worksupp (WSC Technologies Pvt ltd)", "opening_hours": "Mo-Sa 10:00-20:00", "shop": "wholesale", "website": "https://worksupp.com", "wholesale": "arecanut_plates,_housekeeping,_stationary"}}, {"type": "node", "id": 12369374730, "lat": 12.9289384, "lon": 77.6233591, "tags": {"barrier": "gate"}}, {"type": "node", "id": 12369374731, "lat": 12.9298473, "lon": 77.6220708, "tags": {"barrier": "gate"}}, {"type": "node", "id": 12369374732, "lat": 12.9291476, "lon": 77.6240789, "tags": {"amenity": "school", "name": "DBM & RJS School"}}, {"type": "node", "id": 12395928063, "lat": 12.9400829, "lon": 77.6255134, "tags": {"addr:city": "Bengaluru", "addr:suburb": "Koramangala", "amenity": "restaurant", "name": "Jolly Johnny's Bar"}},