poi_id,poi_name,poi_category,latitude,longitude,population_density_100m,population_density_200m,population_density_500m,population_total_100m,population_total_200m,population_total_500m
0,State Bank of India,financial,12.9365346,77.627846,51.0,60.0,65.0,160,758,5125
1,Shilpa Homeopathic Clinic,healthcare,12.9267313,77.6346384,63.0,53.0,53.0,198,668,4170
2,Hotel Ganga Sagar,other,12.944337,77.620028,51.0,68.0,56.0,159,852,4419
3,Gangothri Restaurant,food_beverage,12.9377655,77.6267552,66.0,55.0,54.0,206,685,4248
4,Pizza Hut,food_beverage,12.9398542,77.6251855,72.0,54.0,56.0,225,680,4432
5,Taco Bell,food_beverage,12.9376227,77.6269262,54.0,65.0,69.0,171,822,5394
6,Barista,food_beverage,12.9349444,77.6293498,53.0,63.0,70.0,166,786,5518
7,Rendezvous,food_beverage,12.9355492,77.6287026,48.0,69.0,50.0,151,868,3910
8,Maple's,other,12.9353574,77.6293981,53.0,50.0,71.0,165,627,5608
9,Kota Kachori,food_beverage,12.9362306,77.6254307,68.0,54.0,66.0,213,682,5205
10,Coast to Coast Sea food restaurant,food_beverage,12.9370423,77.6245906,63.0,60.0,56.0,199,758,4387
11,Kubey Seafood Restaurant,food_beverage,12.9370998,77.6245424,62.0,57.0,66.0,195,717,5166
12,Madurai Idly shop,food_beverage,12.9372017,77.6244522,50.0,51.0,61.0,156,641,4796
13,Maharaja Restaurant,food_beverage,12.934295,77.6300787,56.0,53.0,49.0,177,667,3815
14,Axis Bank,financial,12.9338627,77.6304381,54.0,56.0,52.0,171,709,4057
15,nan,food_beverage,12.9312186,77.6342399,71.0,72.0,62.0,224,901,4880
16,Lifestyle,retail,12.9375475,77.6279931,48.0,62.0,65.0,151,784,5094
17,Cromā,retail,12.9380019,77.62749,55.0,54.0,63.0,174,681,4931
18,Canara Bank,financial,12.9344222,77.6240149,68.0,70.0,50.0,213,884,3934
19,Mystique Saloons,retail,12.9352432,77.6248678,51.0,61.0,63.0,159,763,4984
20,Bethany High School Koramangala,education,12.9404971,77.6207624,71.0,57.0,52.0,223,712,4073
21,Apollo Pharmacy,healthcare,12.9373048,77.6244506,64.0,68.0,50.0,201,853,3947
22,Levi's and Nike,retail,12.9337444,77.6301835,60.0,54.0,48.0,190,683,3798
23,HP Petrol Pump,transport,12.933506,77.6303939,70.0,56.0,57.0,220,701,4493
24,Dhanalakshmi Bank,financial,12.9358758,77.6259621,72.0,66.0,69.0,225,832,5457
25,Manyavar,retail,12.9376456,77.626351,63.0,57.0,50.0,198,716,3906
26,HDFC Bank,financial,12.9373618,77.6244338,72.0,55.0,50.0,225,688,3937
27,Mookambika Bar& Resturant,food_beverage,12.9449911,77.618272,59.0,68.0,64.0,185,855,5023
28,Srinivasa Nursing Home,healthcare,12.9423039,77.6174893,67.0,64.0,69.0,210,809,5426
29,Dim Sum,food_beverage,12.9422358,77.6178071,54.0,54.0,52.0,171,678,4099
30,Apollo Pharmacy,healthcare,12.9423666,77.6174611,67.0,60.0,64.0,212,760,5013
31,Bhojohori manna,food_beverage,12.9373691,77.6243143,61.0,65.0,68.0,193,813,5356
32,Ooty Chocolates,retail,12.9350683,77.6245014,51.0,68.0,72.0,161,855,5642
33,heritage of Bengal,food_beverage,12.9373234,77.624368,68.0,62.0,54.0,214,773,4221
34,The boutique,retail,12.9390944,77.6229075,49.0,48.0,50.0,155,605,3900
35,Ocean restaurant,food_beverage,12.9368711,77.6248696,52.0,51.0,71.0,164,647,5540
36,Aanchal,retail,12.9397911,77.6222423,68.0,60.0,57.0,215,755,4506
37,Indian Bank,financial,12.9366613,77.6253726,55.0,64.0,57.0,173,800,4469
38,Chalo Punjab,food_beverage,12.9377944,77.6266966,66.0,52.0,65.0,208,649,5110
39,Dreams on wheelz,retail,12.937648,77.6267717,50.0,61.0,52.0,157,770,4063
40,Namdhari's fresh,retail,12.9382962,77.626001,55.0,62.0,51.0,172,783,4005
41,Ambrosia restaurant,food_beverage,12.9361835,77.6258638,64.0,67.0,52.0,202,842,4060
42,OM Stationery and xerox,retail,12.9364455,77.6255862,50.0,69.0,69.0,158,870,5414
43,Kwality Walls,food_beverage,12.9380577,77.6261445,64.0,63.0,61.0,201,794,4790
44,IndusInd Bank,financial,12.9401157,77.6250336,50.0,53.0,69.0,156,661,5384
45,Sheelu Flowers,retail,12.937482,77.6265625,55.0,70.0,63.0,173,883,4915
46,B52 Bar,food_beverage,12.9362155,77.6259241,64.0,54.0,59.0,202,684,4604
47,"Vasan Eye Care Hospital, Koramangala",healthcare,12.9402371,77.6253403,71.0,66.0,55.0,222,827,4281
48,Brown Tree Super,retail,12.937363,77.626659,49.0,64.0,49.0,154,805,3847
49,Bank of Baroda,financial,12.9367383,77.6259938,53.0,57.0,68.0,168,722,5309
50,Mahindra showroom,retail,12.9378271,77.6266388,60.0,58.0,66.0,190,723,5195
51,ICICI Bank,financial,12.9255307,77.6371758,71.0,61.0,67.0,224,765,5289
52,Kripanidhi Cambridge Public School,education,12.9246365,77.6384508,70.0,56.0,72.0,219,706,5627
53,Boca Grande,food_beverage,12.9416947,77.621508,56.0,56.0,50.0,176,705,3898
54,Federal Bank,financial,12.9420162,77.6219426,59.0,56.0,62.0,184,698,4898
55,Theme Piano World,retail,12.9420816,77.6220418,65.0,61.0,64.0,205,767,5034
56,Basha Clinic,healthcare,12.924661,77.638669,66.0,57.0,65.0,207,722,5120
57,Corporation Bank,financial,12.9377559,77.6239822,57.0,52.0,63.0,179,654,4986
58,State Bank of India,financial,12.927395,77.621901,70.0,53.0,71.0,219,662,5607
59,Agarwal Eye Hospital,healthcare,12.9273417,77.6221301,64.0,59.0,49.0,202,741,3814
60,Vijaya Shree Diagnostics,healthcare,12.9271081,77.6226087,70.0,72.0,67.0,219,901,5290
61,Unity Small Finance Bank,financial,12.9322872,77.6320394,65.0,58.0,49.0,203,727,3834
62,Kanyaka Clothes,retail,12.9252403,77.6337162,64.0,54.0,58.0,200,673,4544
63,Himalaya Health care - druggists,healthcare,12.9377532,77.6266479,69.0,61.0,71.0,216,764,5579
64,Polynation,food_beverage,12.9375545,77.6281177,50.0,55.0,63.0,157,690,4984
65,Max,retail,12.9375258,77.6285425,62.0,59.0,58.0,194,736,4577
66,Roots Multiclean,retail,12.9367337,77.6249849,69.0,50.0,49.0,216,626,3867
67,Home Lifestyle,retail,12.9373924,77.6279943,53.0,67.0,53.0,167,843,4190
68,Taste of Bihar,food_beverage,12.9376735,77.6264373,55.0,53.0,62.0,173,664,4871
69,Kolourrs Unisex salon,retail,12.9426306,77.6223732,62.0,66.0,62.0,196,828,4858
70,Nandini Andra Style,food_beverage,12.9317341,77.6228586,64.0,71.0,48.0,202,897,3785
71,Sumith Provision & Condiments,retail,12.9372827,77.6245142,67.0,50.0,52.0,209,632,4102
72,Crystal Stationeries,retail,12.9374604,77.6242714,60.0,64.0,66.0,189,810,5155
73,Utsav,food_beverage,12.9311975,77.6228542,59.0,62.0,55.0,186,782,4308
74,Nilgiri's,retail,12.9266971,77.6236359,69.0,66.0,62.0,216,827,4872
75,Citibank,financial,12.9381356,77.6277657,53.0,55.0,57.0,166,690,4505
76,KFC,food_beverage,12.9376941,77.6270393,57.0,54.0,56.0,180,677,4396
77,Great Indian Thali,food_beverage,12.9365165,77.6274121,70.0,63.0,72.0,221,790,5651
78,Manasa Veg,food_beverage,12.943062,77.6175679,58.0,58.0,63.0,182,730,4919
79,Sagar Fast Food,food_beverage,12.9417545,77.6215457,53.0,62.0,56.0,165,778,4379
80,HDFC Bank,financial,12.943452,77.6178697,65.0,66.0,56.0,204,834,4382
81,ICICI Bank,financial,12.9434676,77.6178331,57.0,55.0,61.0,179,693,4828
82,Barbeque Nation,food_beverage,12.9255152,77.6370763,66.0,57.0,58.0,206,722,4529
83,Login Serviced Apartments,other,12.9313893,77.623888,63.0,49.0,65.0,199,617,5074
84,HDFC Bank,financial,12.9347958,77.6298075,57.0,52.0,68.0,179,659,5352
85,HDFC Bank,financial,12.9347383,77.6298155,52.0,61.0,57.0,162,771,4477
86,nan,retail,12.9285453,77.6283645,50.0,59.0,64.0,157,745,5052
87,nan,retail,12.9285532,77.6282626,49.0,57.0,62.0,153,718,4841
88,Ajit Medicals,healthcare,12.9295466,77.6291289,52.0,59.0,55.0,164,747,4290
89,nan,retail,12.9333424,77.6298772,53.0,58.0,68.0,167,723,5378
90,Food Mall,retail,12.9334024,77.6298023,63.0,62.0,70.0,198,779,5509
91,Canara Bank,financial,12.9437857,77.6236824,64.0,72.0,62.0,202,903,4898
92,State Bank of India,financial,12.9422696,77.6253883,71.0,59.0,61.0,223,743,4757
93,nan,transport,12.9374015,77.6283868,60.0,70.0,53.0,190,875,4159
94,Grand Mercure,other,12.9290137,77.6276776,51.0,67.0,56.0,159,844,4403
95,Cafe Coffee Day,food_beverage,12.9303605,77.6228604,59.0,70.0,52.0,184,877,4103
96,Sagar Fast Food,food_beverage,12.9305918,77.6229717,64.0,68.0,70.0,200,860,5511
97,Food Triangle,retail,12.9308637,77.623075,59.0,54.0,58.0,186,679,4531
98,MedPlus,healthcare,12.9312166,77.6233097,54.0,58.0,59.0,169,723,4663
99,Syndicate Bank,financial,12.9306861,77.6230253,66.0,57.0,66.0,207,710,5198
100,Ambur Biriyani,food_beverage,12.9308439,77.6226408,55.0,53.0,50.0,174,668,3902
101,Syndicate Bank,financial,12.9466123,77.6218766,53.0,63.0,64.0,168,790,5004
102,Nandini Milk Parlour,retail,12.9460379,77.6221481,58.0,57.0,62.0,183,721,4861
103,Nandini Milk Parlour,retail,12.9440649,77.624007,48.0,51.0,59.0,151,640,4655
104,nan,retail,12.9436693,77.62521,52.0,62.0,71.0,162,774,5600
105,Nami Designer,retail,12.9440787,77.6247551,48.0,63.0,66.0,150,788,5204
106,The Bangalore A1,retail,12.9440393,77.6257271,71.0,54.0,61.0,223,684,4773
107,Sri Adhi Lakshmi,retail,12.9447492,77.6244929,48.0,58.0,53.0,151,735,4148
108,Sri Adhi Lakshmi,retail,12.9450817,77.6242547,58.0,56.0,51.0,181,701,4024
109,Bhunaa's,retail,12.9451326,77.6242163,56.0,58.0,52.0,176,726,4057
110,State Bank of India,financial,12.9423718,77.6251542,68.0,70.0,51.0,213,874,3970
111,Eye Level Learning Center,education,12.9419581,77.6227858,69.0,69.0,63.0,218,872,4951
112,Sculptura Aesthetic Centre,healthcare,12.9420247,77.6227252,69.0,69.0,49.0,216,873,3857
113,SLV Stores,retail,12.9482932,77.6213652,58.0,62.0,62.0,181,779,4895
114,Juice Maker,food_beverage,12.9417768,77.6215095,58.0,63.0,56.0,182,796,4367
115,Mango Hotels,other,12.9344183,77.626046,57.0,60.0,58.0,179,752,4528
116,1522,food_beverage,12.9342864,77.6301111,66.0,52.0,66.0,207,659,5170
117,Ichin Restaurant,food_beverage,12.937762,77.6271125,55.0,56.0,71.0,173,701,5569
118,Axis Bank,financial,12.9324956,77.631848,61.0,62.0,60.0,191,785,4747
119,Mani's Dum Biriyani,food_beverage,12.9274912,77.6373711,62.0,50.0,50.0,194,628,3892
120,nan,financial,12.9272827,77.6379132,49.0,55.0,65.0,154,685,5119
121,Naiyanar Bakery,retail,12.9273443,77.6381549,63.0,48.0,49.0,197,605,3841
122,nan,financial,12.9414316,77.6174359,61.0,59.0,50.0,191,741,3893
123,nan,retail,12.9327419,77.6269861,64.0,52.0,67.0,202,659,5269
124,Pingara Restaurant & Bar,food_beverage,12.9253813,77.6337008,52.0,60.0,71.0,163,760,5573
125,Gunasheela Hospitals,healthcare,12.9250105,77.6278708,55.0,54.0,72.0,173,676,5653
126,Murthy Health and Research Centre,healthcare,12.9247643,77.6382862,50.0,59.0,64.0,156,745,4990
127,Fj Merrit Hydrotherapy And Wellness,healthcare,12.9344224,77.6299785,67.0,62.0,65.0,212,780,5121
128,Shradha Nursing Home,healthcare,12.9422807,77.6208282,52.0,63.0,52.0,164,788,4056
129,Diabetacare,healthcare,12.9398696,77.6257338,48.0,48.0,55.0,152,603,4321
130,Anand Diagnostic Laboratory,healthcare,12.9301422,77.6231727,60.0,63.0,65.0,189,797,5087
131,Ruth Medicals,healthcare,12.9317312,77.6230979,58.0,54.0,55.0,182,682,4319
132,Maxwell Pharma,healthcare,12.9340694,77.625222,48.0,63.0,67.0,152,790,5242
133,Dialogues Cafe,food_beverage,12.9353486,77.6249595,53.0,54.0,63.0,167,679,4951
134,TVS,retail,12.9268723,77.623687,56.0,57.0,68.0,175,720,5340
135,Puma,retail,12.9452356,77.6184676,71.0,55.0,59.0,222,692,4633
136,Charisma Spa Pvt Ltd,retail,12.9359041,77.6284372,64.0,65.0,58.0,202,815,4547
137,"The Craftery by Subko, BLR",retail,12.926081,77.6254085,48.0,70.0,59.0,152,880,4649
138,O2 Spa,retail,12.9289891,77.6278047,51.0,52.0,67.0,159,654,5295
139,Ocean salon & spa,retail,12.9384867,77.6235272,54.0,61.0,62.0,170,761,4879
140,Essence Unisex Salon And Spa,retail,12.9280827,77.6373095,70.0,54.0,62.0,220,677,4870
141,Renaissance Unisex Salon & Spa,retail,12.9336239,77.6296283,56.0,55.0,69.0,176,689,5458
142,STUDIO11 Salon & Spa,retail,12.9406759,77.6245,62.0,58.0,65.0,196,734,5144
143,Isthaa spa,retail,12.9252152,77.6338719,69.0,59.0,61.0,217,745,4761
144,MedPlus,healthcare,12.9341008,77.6272181,49.0,68.0,63.0,154,859,4913
145,Fringes Unisex Salon,retail,12.9340373,77.6272494,48.0,69.0,64.0,152,867,5053
146,nan,food_beverage,12.9304984,77.6338469,60.0,64.0,70.0,188,805,5467
147,SOCH,retail,12.9378068,77.6271846,71.0,66.0,66.0,224,826,5162
148,Kushals,retail,12.9378414,77.6272417,67.0,65.0,68.0,211,816,5363
149,Maruti Suzuki,retail,12.9315321,77.6228069,54.0,68.0,58.0,171,854,4569
150,Sutra Spice Resto Bar,food_beverage,12.9317652,77.6229215,54.0,58.0,72.0,171,725,5630
151,ICICI Bank,financial,12.9317704,77.6228514,48.0,63.0,63.0,152,789,4969
152,Bar Code,food_beverage,12.9332818,77.6233214,63.0,58.0,64.0,199,723,4994
153,Vachani Vista,healthcare,12.9320032,77.6229997,58.0,50.0,59.0,183,630,4631
154,Anjappar Chettinad Restuarant Koramangala,other,12.9321765,77.623039,69.0,48.0,51.0,217,607,4025
155,Via Milano,food_beverage,12.9370109,77.6275262,49.0,50.0,54.0,155,632,4276
156,Aravind Home,other,12.9423918,77.6204543,66.0,61.0,62.0,206,772,4865
157,Bakasur,food_beverage,12.9380609,77.6275572,68.0,65.0,60.0,213,814,4717
158,Bak Bak Bar,food_beverage,12.9381482,77.6276388,53.0,49.0,59.0,168,619,4649
159,Pingara,food_beverage,12.9251568,77.6338744,67.0,53.0,62.0,211,666,4875
160,Carrots,food_beverage,12.9388196,77.625775,60.0,65.0,51.0,188,820,4029
161,Riya Kodali Design House,retail,12.9367256,77.6265291,52.0,51.0,63.0,162,645,4964
162,Saraswat Bank,financial,12.936096,77.6258876,67.0,70.0,60.0,212,882,4693
163,HDFC Bank,financial,12.9325902,77.6232725,56.0,60.0,53.0,177,759,4184
164,HDFC Bank,financial,12.9356454,77.628683,71.0,55.0,49.0,224,693,3875
165,Nasi and Mee,food_beverage,12.9350683,77.6292839,62.0,51.0,49.0,196,636,3840
166,Yes Bank,financial,12.9362974,77.6277069,69.0,54.0,57.0,216,678,4464
167,BSR Lassi Packers Shop,food_beverage,12.9344393,77.6295345,65.0,65.0,64.0,204,823,5049
168,Andhra Bank,financial,12.9346219,77.6293199,53.0,57.0,70.0,165,718,5504
169,Petals,retail,12.9348078,77.6291104,63.0,69.0,58.0,199,863,4572
170,Bistro Claytopia,food_beverage,12.9255456,77.6333329,69.0,66.0,59.0,216,835,4610
171,State Bank of India,financial,12.9257724,77.6333947,51.0,65.0,66.0,159,811,5204
172,Magnolia,food_beverage,12.9260044,77.6332862,54.0,54.0,50.0,171,683,3954
173,"iService - iPhone, MacBook, Oneplus, Xiaomi Repairs and Service Center",retail,12.926672,77.6335707,69.0,59.0,72.0,216,744,5634
174,Federal Bank,financial,12.9269862,77.6332224,51.0,72.0,61.0,159,901,4754
175,Pragathi Homeo Pharmacy,healthcare,12.9255085,77.6343557,66.0,62.0,68.0,207,785,5315
176,Sankeerthana Hospital and Fertility Center,healthcare,12.9256013,77.6359638,56.0,68.0,51.0,177,854,3993
177,State Bank of India,financial,12.9256161,77.6368877,64.0,72.0,65.0,202,904,5111
178,Barbeque Nation,food_beverage,12.9251513,77.6378065,71.0,50.0,54.0,222,632,4217
179,Chartered Sahakari Bank Niyamitha,financial,12.9250056,77.6379296,57.0,56.0,53.0,178,701,4134
180,ICICI Bank,financial,12.9256424,77.6366798,70.0,68.0,70.0,220,857,5485
181,Aishwarya,retail,12.9253183,77.6348207,58.0,60.0,56.0,183,750,4413
182,Kiran Medical Store,healthcare,12.9332568,77.6296592,53.0,69.0,57.0,167,861,4486
183,Shiva Vision Care,healthcare,12.9366526,77.6277125,59.0,51.0,62.0,186,642,4903
184,Lassi top,retail,12.9367507,77.62774,52.0,52.0,50.0,163,650,3932
185,The Tiffin Express,food_beverage,12.9367615,77.6276835,70.0,55.0,68.0,220,686,5327
186,GMPS Koramangala,education,12.9436634,77.6189383,63.0,62.0,60.0,199,782,4751
187,Kotak Mahindra Bank,financial,12.9256339,77.6368064,53.0,56.0,61.0,166,702,4805
188,Dba Reddy Janasangha Koramangala,education,12.9289663,77.6240375,61.0,61.0,53.0,193,765,4145
189,"Chinmaya Vidyalaya, Koramangala",education,12.9350185,77.6276797,63.0,64.0,71.0,197,801,5571
190,Lassi Shop,retail,12.9340215,77.6293735,60.0,59.0,60.0,188,740,4745
191,GLPS Mestri Palya,education,12.9331051,77.62526,54.0,66.0,67.0,171,834,5273
192,Seema HPS Eegipura W No 68,education,12.9261765,77.6361788,68.0,57.0,52.0,215,721,4056
193,St Frances Icse School Koramangala,education,12.9248675,77.6292823,54.0,54.0,63.0,171,680,4965
194,Devi Eye Hospital,healthcare,12.9412109,77.6238987,64.0,59.0,54.0,202,739,4229
195,Kamala Nethralaya,healthcare,12.9314314,77.6233582,52.0,66.0,64.0,163,827,5045
196,Well Spring hospital,healthcare,12.9425676,77.6224349,57.0,72.0,53.0,180,901,4192
197,Kappa Chakka Kandhari,food_beverage,12.9405303,77.6235653,64.0,62.0,62.0,200,776,4877
198,Sour House,retail,12.9407064,77.6201677,71.0,57.0,49.0,224,718,3816
199,Iyengar Bakery,retail,12.9285794,77.628205,60.0,53.0,60.0,189,667,4683
200,nan,retail,12.9286787,77.6242715,59.0,72.0,66.0,184,903,5182
201,Indian Bank,financial,12.9366398,77.6251927,64.0,70.0,49.0,202,882,3837
202,Sour House,food_beverage,12.9350754,77.6249289,57.0,53.0,66.0,180,668,5188
203,The Sleep Company Store,retail,12.9349148,77.6294281,52.0,55.0,65.0,164,689,5143
204,Regenta Inn Grand,other,12.943185,77.6213595,61.0,63.0,61.0,193,791,4793
205,Cherry Pick Furniture,retail,12.9434734,77.6212956,56.0,63.0,52.0,175,791,4120
206,Akshara Motors,retail,12.9449962,77.6194713,62.0,68.0,64.0,195,849,4988
207,Advaith Hyundai,retail,12.9448081,77.6197397,65.0,71.0,67.0,204,887,5235
208,IVF Access - Fertility Clinic,healthcare,12.9449334,77.6196372,57.0,49.0,63.0,178,620,4947
209,McDonald's,food_beverage,12.9451177,77.6200265,56.0,61.0,55.0,175,768,4305
210,Coasta,food_beverage,12.9436787,77.6211534,64.0,57.0,64.0,200,716,5048
211,Liquor Mart,retail,12.9433532,77.6215421,50.0,67.0,65.0,157,840,5099
212,Manu Pit Stop,retail,12.943275,77.6216701,49.0,51.0,61.0,155,644,4781
213,Zudio,retail,12.9450064,77.620248,54.0,50.0,50.0,170,623,3962
214,Axis Bank,financial,12.9405431,77.6245299,62.0,50.0,66.0,194,633,5211
215,My Tech World,retail,12.942727,77.6222852,54.0,51.0,67.0,169,635,5252
216,Just Dogs,retail,12.9423709,77.6226909,51.0,68.0,65.0,159,858,5067
217,The Coorg Food Company,food_beverage,12.941012,77.6241505,70.0,57.0,50.0,221,720,3953
218,Biriyani Depot,food_beverage,12.9408608,77.6243138,67.0,55.0,52.0,209,687,4066
219,nan,financial,12.9405717,77.6246062,66.0,57.0,71.0,207,712,5613
220,HDFC Home Loans,financial,12.9423282,77.6226526,69.0,48.0,69.0,218,609,5440
221,H.K.G.N Bike Mechanic,retail,12.9425012,77.6229374,62.0,57.0,68.0,196,720,5346
222,Ujjivan Small Finance Bank,financial,12.9417161,77.6233404,52.0,55.0,63.0,162,686,4978
223,Vitamin Galaxy,healthcare,12.940938,77.6241703,66.0,57.0,51.0,206,721,4022
224,Tea Coffee House,food_beverage,12.9409106,77.6242697,50.0,58.0,56.0,156,727,4369
225,RBL Bank,financial,12.9422163,77.6228522,53.0,65.0,63.0,167,822,4971
226,Madurai Restaurant,food_beverage,12.9419888,77.6230815,53.0,54.0,69.0,168,673,5385
227,Cafe Five Guys,food_beverage,12.9414494,77.6236346,68.0,49.0,53.0,215,616,4132
228,nan,financial,12.942267,77.6228332,48.0,65.0,69.0,151,822,5436
229,HDFC Bank,financial,12.9420181,77.6229498,71.0,54.0,70.0,223,673,5532
230,nan,financial,12.9420232,77.6230093,57.0,54.0,55.0,180,683,4347
231,Sabka Dentist,healthcare,12.9415824,77.6235081,51.0,63.0,60.0,161,786,4748
232,Puncture Shop,retail,12.9413673,77.6240803,53.0,70.0,66.0,166,879,5182
233,Retreat Spa & Salon,retail,12.9408618,77.6242481,61.0,53.0,56.0,193,663,4416
234,Utkarsh Small Finance Bank,financial,12.9398397,77.6252767,55.0,67.0,63.0,173,839,4974
235,nan,financial,12.9398703,77.6252571,49.0,59.0,66.0,154,746,5150
236,R.K.Mens Saloon,retail,12.9407259,77.6268205,69.0,64.0,51.0,217,805,3993
237,Shree Ganesh Juice Centre,food_beverage,12.9407018,77.6267911,59.0,62.0,63.0,185,782,4933
238,IndusInd Bank,financial,12.9399395,77.6251611,52.0,69.0,66.0,164,862,5181
239,Tyre Port,retail,12.9400847,77.6250647,55.0,71.0,65.0,173,889,5079
240,Sixtyy,food_beverage,12.9400354,77.6254608,60.0,60.0,64.0,189,751,5007
241,nan,financial,12.9399297,77.6252027,58.0,62.0,68.0,182,779,5322
242,Domino's,food_beverage,12.9402358,77.6248865,59.0,69.0,67.0,186,873,5229
243,Perfect Yamaha,retail,12.9403001,77.6252477,58.0,70.0,51.0,181,885,3980
244,Raju Honda,retail,12.9402228,77.6252938,64.0,70.0,49.0,200,879,3842
245,Flora Beauty Salon,retail,12.9406228,77.6261245,50.0,61.0,62.0,158,767,4863
246,Hello Mobile,retail,12.9405384,77.6261865,61.0,49.0,52.0,192,622,4057
247,Blue Tokai,food_beverage,12.9407577,77.6202069,59.0,66.0,53.0,186,830,4178
248,icycle.in,retail,12.9365956,77.6273239,61.0,52.0,57.0,192,656,4497
249,VLCC,retail,12.9367647,77.6271187,48.0,66.0,50.0,151,828,3892
250,La Pino'z Pizza,food_beverage,12.932216,77.6321306,61.0,57.0,59.0,193,722,4670
251,Login2Eat.com,food_beverage,12.9353206,77.6299347,67.0,54.0,62.0,211,677,4866
252,KM Shukla Store,retail,12.9352769,77.6299633,72.0,62.0,55.0,225,776,4333
253,Sri Bhuvaneswari Laundry,retail,12.9350889,77.6300415,68.0,48.0,51.0,215,605,4010
254,Sri Manjunatha 2 Wheeler Repair,retail,12.9355706,77.6298416,60.0,62.0,67.0,188,775,5301
255,Parameshwari Traders,retail,12.9391778,77.6258972,59.0,64.0,49.0,186,803,3819
256,Lenovo,retail,12.938973,77.6259626,51.0,58.0,60.0,161,725,4746
257,Realme,retail,12.9390389,77.6259421,61.0,53.0,71.0,191,670,5540
258,Auto Style,retail,12.9396583,77.6257225,67.0,72.0,54.0,212,904,4219
259,Acer Mall,retail,12.9392459,77.6258767,68.0,60.0,54.0,215,755,4277
260,Fatima,retail,12.939109,77.6259207,72.0,54.0,70.0,225,680,5531
261,Khanate Bespoke Fashion,retail,12.9395545,77.6257533,65.0,55.0,55.0,205,691,4309
262,Ramdev Medical,healthcare,12.9394907,77.6257893,52.0,67.0,62.0,162,847,4883
263,nan,financial,12.9383445,77.6259659,66.0,50.0,64.0,206,625,5048
264,The Detailing Mafia,retail,12.9385446,77.6261803,58.0,67.0,59.0,183,844,4595
265,Dell Exclusive Store,retail,12.9387545,77.6260701,66.0,50.0,68.0,208,624,5344
266,IDFC First Bank,financial,12.938313,77.6259211,70.0,69.0,53.0,219,864,4178
267,Asus,retail,12.93869,77.6261024,55.0,62.0,51.0,172,774,4025
268,Bhumi Spirit,retail,12.9388064,77.6260422,57.0,54.0,55.0,180,674,4325
269,Alt Pizza,food_beverage,12.9351115,77.6292155,64.0,67.0,66.0,202,842,5199
270,Third Wave Coffee Roasters,food_beverage,12.9347397,77.6296212,64.0,56.0,53.0,201,700,4170
271,Maverick and Farmer Coffee,food_beverage,12.935354,77.6284155,58.0,53.0,55.0,183,660,4358
272,154 Breakfast Club,food_beverage,12.933281,77.6270744,54.0,68.0,62.0,171,859,4906
273,Coorg Fresh Vegetables and Fruits,retail,12.9350462,77.6249939,60.0,51.0,58.0,188,637,4519
274,Bhima Jewellers,retail,12.9346147,77.6250274,67.0,71.0,55.0,209,887,4292
275,Aubree,retail,12.9423062,77.6227822,54.0,52.0,65.0,169,654,5082
276,Pasta Street,food_beverage,12.9328588,77.6309864,57.0,66.0,58.0,180,825,4594
277,Chin Lung Resto Bar,food_beverage,12.9318674,77.6320308,67.0,68.0,57.0,209,854,4442
278,Truefitt & Hill,retail,12.9313575,77.6324685,57.0,50.0,62.0,179,634,4896
279,Bandhan Bank,financial,12.9255788,77.6362412,69.0,71.0,72.0,217,898,5654
280,Nari & Kāge,retail,12.9336416,77.628382,59.0,61.0,62.0,186,770,4859
281,Kanti Sweets,retail,12.9304908,77.6229826,49.0,62.0,72.0,154,775,5619
282,Glen's Bakehouse,retail,12.937942,77.6262087,71.0,69.0,49.0,223,865,3819
283,Ssura,food_beverage,12.9398026,77.625213,62.0,64.0,56.0,195,807,4378
284,The Verandah,food_beverage,12.9291597,77.6273802,60.0,54.0,48.0,188,681,3771
285,JSP Motorrad,retail,12.935429,77.6284361,66.0,64.0,64.0,207,808,5011
286,Bharat Bank,financial,12.9262798,77.6332784,66.0,53.0,50.0,207,664,3940
287,Chai Fast,food_beverage,12.9271334,77.6332033,49.0,50.0,71.0,154,630,5577
288,Wooden Street,retail,12.9302112,77.6329689,51.0,66.0,57.0,161,831,4451
289,Barista,food_beverage,12.9310729,77.6326552,49.0,57.0,70.0,155,714,5493
290,Domino's,food_beverage,12.9311872,77.6326024,71.0,53.0,64.0,224,669,5018
291,Starbucks,food_beverage,12.9323886,77.6314845,59.0,52.0,67.0,185,648,5284
292,Jana Small Finance Bank,financial,12.9343675,77.630024,50.0,52.0,51.0,156,649,4032
293,Duroflex,retail,12.9346521,77.6297029,57.0,49.0,50.0,179,615,3907
294,Sleepwell,retail,12.9353516,77.6289478,59.0,67.0,57.0,186,847,4482
295,Mercedes Benz,retail,12.9355461,77.62827,50.0,60.0,67.0,156,759,5297
296,Sony Centre,retail,12.9366403,77.6277623,62.0,61.0,58.0,195,771,4562
297,imagine,retail,12.9363775,77.6274783,52.0,70.0,69.0,162,880,5446
298,Amona,retail,12.9363539,77.6274229,49.0,60.0,70.0,155,759,5483
299,Khana Junction,food_beverage,12.9440443,77.6207612,52.0,63.0,53.0,162,787,4144
300,Reliance Jewels,retail,12.9364323,77.6273237,50.0,60.0,62.0,156,755,4850
301,rentomojo.com,retail,12.9373048,77.626698,67.0,48.0,61.0,210,607,4790
302,Lavish Pharma,healthcare,12.9374519,77.6265817,59.0,71.0,57.0,186,895,4510
303,Satyam Office Suppliers,retail,12.9374048,77.6266273,65.0,55.0,52.0,205,689,4110
304,Mega IT Store,retail,12.9381932,77.6259997,59.0,71.0,68.0,184,889,5344
305,The Coorg Food Company,food_beverage,12.9408888,77.6242864,71.0,68.0,63.0,223,853,4923
306,Satvik Aahar,retail,12.9418935,77.6231805,57.0,49.0,50.0,180,617,3946
307,Dell,retail,12.9425114,77.6225024,50.0,53.0,50.0,156,671,3904
308,Bajaj,retail,12.9431166,77.6218102,62.0,56.0,55.0,194,706,4357
309,Sri Udupi Utsav,food_beverage,12.9438577,77.6209994,70.0,49.0,50.0,221,611,3921
310,Toni & Guy,retail,12.9452528,77.6198347,54.0,49.0,59.0,170,621,4600
311,JusBake,retail,12.9268376,77.6332674,55.0,54.0,69.0,172,683,5390
312,Sapphire Toys,retail,12.937206,77.6272579,51.0,63.0,54.0,160,794,4247
313,Electronics Bazaar,retail,12.933798,77.6299607,70.0,55.0,50.0,219,689,3953
314,Helios,retail,12.935764,77.6285398,67.0,52.0,52.0,211,657,4063
315,Lighting Emporio,retail,12.936888,77.6270479,72.0,53.0,63.0,225,666,4955
316,GIVA,retail,12.9372703,77.6266577,72.0,69.0,72.0,225,865,5637
317,LG,retail,12.9266025,77.6332815,67.0,71.0,50.0,210,898,3941
318,Tatvika Cafe,food_beverage,12.9268066,77.6332725,69.0,70.0,61.0,216,879,4784
319,nan,retail,12.9320555,77.6318284,64.0,65.0,60.0,200,816,4674
320,The Organic World,retail,12.9338285,77.629995,59.0,60.0,50.0,185,754,3958
321,Kurl-On,retail,12.9345066,77.6293607,48.0,60.0,50.0,152,755,3942
322,Sri Ganesh Juice Junction,food_beverage,12.9402757,77.6248468,57.0,60.0,49.0,178,758,3850
323,Classic Men's Salon,retail,12.9466331,77.6186349,68.0,55.0,48.0,213,695,3773
324,Cut & Style Salon,retail,12.9295032,77.6326634,58.0,66.0,67.0,182,829,5264
325,MedPlus,healthcare,12.930344,77.6332226,66.0,53.0,62.0,206,661,4861
326,Chai Point,food_beverage,12.9307348,77.633114,64.0,69.0,60.0,202,861,4683
327,Gabru Di Chaap,food_beverage,12.9309544,77.6330697,68.0,66.0,70.0,213,829,5536
328,YLG Salon,retail,12.9311505,77.6325856,58.0,72.0,50.0,183,904,3922
329,ICICI Bank,financial,12.9314093,77.6325158,62.0,70.0,51.0,196,876,4043
330,SVC Cooperative Bank Ltd,financial,12.9308067,77.6327707,50.0,59.0,48.0,156,742,3770
331,Al Taza,food_beverage,12.9308262,77.6330783,60.0,56.0,57.0,189,699,4443
332,Lotus Unisex Spa,retail,12.930842,77.633114,63.0,63.0,69.0,197,790,5391
333,Gail Gas,transport,12.9252665,77.6341144,48.0,62.0,61.0,151,776,4788
334,nan,retail,12.9361379,77.6277548,54.0,50.0,61.0,169,629,4800
335,GKB Opticals,retail,12.9368734,77.6275483,71.0,60.0,53.0,223,754,4166
336,Royal Tandoor,food_beverage,12.9367572,77.6276099,55.0,60.0,48.0,174,757,3800
337,iworld,retail,12.9369935,77.6273987,66.0,54.0,50.0,206,684,3892
338,Daily Bakehouse,retail,12.9313963,77.6234718,66.0,62.0,52.0,206,774,4103
339,Just Loaf,food_beverage,12.9313462,77.6234605,59.0,70.0,62.0,184,883,4901
340,Cafe Reset,food_beverage,12.9376205,77.6243795,49.0,48.0,52.0,155,603,4077
341,Hypons Hotel,other,12.925273,77.6345868,60.0,72.0,58.0,188,901,4558
342,Bunny Bar,food_beverage,12.9331176,77.6307088,53.0,71.0,72.0,167,893,5621
343,Roastea,food_beverage,12.9357945,77.6280548,67.0,54.0,71.0,210,676,5559
344,Volkswagen City Store,retail,12.9293372,77.6218922,63.0,63.0,52.0,197,796,4080
345,Cafe Zubaan,food_beverage,12.9408051,77.6241773,61.0,59.0,53.0,193,746,4161
346,The Fixx Bar,food_beverage,12.9322948,77.6316027,55.0,67.0,58.0,173,846,4551
347,Dialogues Cafe,food_beverage,12.9325502,77.6318589,53.0,51.0,58.0,167,645,4535
348,Helloo Dilli,food_beverage,12.931798,77.632117,54.0,63.0,68.0,170,792,5350
349,Zeiss Vision Center,retail,12.9315093,77.6324208,58.0,58.0,67.0,183,725,5224
350,Bandhan Bank,financial,12.9317143,77.6322196,60.0,57.0,57.0,190,714,4461
351,enrich,retail,12.9315158,77.6328365,55.0,61.0,62.0,172,766,4857
352,Thai Basil,food_beverage,12.9313995,77.6329049,59.0,70.0,50.0,184,884,3895
353,Kotak Mahindra Bank,financial,12.9332839,77.6310669,55.0,66.0,56.0,172,831,4391
354,Onesta,food_beverage,12.9333297,77.6310562,48.0,64.0,71.0,151,807,5564
355,RBL Bank,financial,12.9331813,77.6311695,50.0,67.0,52.0,156,840,4102
356,nan,financial,12.9330896,77.6312388,51.0,54.0,57.0,160,676,4484
357,State Bank of India,financial,12.9330648,77.6312713,60.0,61.0,67.0,187,764,5234
358,Noodira Salon,retail,12.9323246,77.6320872,52.0,67.0,59.0,164,841,4665
359,Clove Dental,healthcare,12.9322049,77.6321901,60.0,67.0,49.0,188,837,3875
360,Bottle Store,retail,12.9321791,77.6321694,54.0,55.0,56.0,169,686,4417
361,Cafe OTW On The Way,food_beverage,12.9295347,77.6308153,63.0,57.0,70.0,197,720,5521
362,Cherish Fertinity Clinic,healthcare,12.9296138,77.6316244,53.0,64.0,60.0,165,798,4743
363,DriveX NIAX Motors,retail,12.9300397,77.6332545,68.0,51.0,52.0,215,642,4090
364,Nanesh Unisex Salon,retail,12.9295327,77.6320146,70.0,59.0,54.0,219,742,4276
365,Ananya Comforts,other,12.9295732,77.631965,68.0,68.0,62.0,215,854,4867
366,Kaffe 399,food_beverage,12.9295262,77.6319228,55.0,50.0,56.0,172,633,4396
367,Pulito Wash,retail,12.9306501,77.6331509,58.0,58.0,50.0,181,729,3896
368,Belgian Waffle,food_beverage,12.9305861,77.6331696,70.0,65.0,51.0,221,811,3984
369,LokoMAD,retail,12.9308818,77.6327024,62.0,64.0,60.0,195,808,4674
370,The Peck,food_beverage,12.9408358,77.6202589,66.0,49.0,60.0,208,612,4676
371,HDFC Bank,financial,12.9312568,77.623582,71.0,67.0,55.0,224,847,4346
372,Axis Bank,financial,12.9310666,77.6240212,59.0,64.0,64.0,184,803,5043
373,Brunch Project,food_beverage,12.9333097,77.6270074,59.0,66.0,67.0,185,827,5229
374,Mitra Cafe,food_beverage,12.93678,77.6249117,65.0,61.0,59.0,205,763,4613
375,Wire up,retail,12.9340933,77.6297208,59.0,53.0,48.0,185,664,3798
376,Yara Cafe,food_beverage,12.9421337,77.6219393,68.0,63.0,52.0,213,792,4108
377,Worksupp (WSC Technologies Pvt ltd),retail,12.9383091,77.6271996,70.0,70.0,64.0,220,880,5048
378,DBM & RJS School,education,12.9291476,77.6240789,71.0,56.0,72.0,223,708,5644
379,Jolly Johnny's Bar,food_beverage,12.9400829,77.6255134,65.0,72.0,72.0,204,904,5645
380,Fast Coffee,food_beverage,12.9350501,77.6250594,66.0,70.0,67.0,207,880,5227
381,Dave & Buster's,food_beverage,12.9453987,77.6196691,68.0,57.0,57.0,215,714,4465
382,Beams Hospitals Private Limited,healthcare,12.9342277,77.6296323,55.0,51.0,49.0,174,641,3829
383,Helios The Watch Store.,retail,12.9358705,77.6284503,60.0,69.0,61.0,189,872,4814
384,Friendz Flavour Kitchen,food_beverage,12.9353545,77.6295503,66.0,59.0,48.0,206,745,3789
385,The High Joint,food_beverage,12.9261467,77.6332737,59.0,63.0,58.0,186,791,4539
386,Proteeth Dental,healthcare,12.9346221,77.6284665,65.0,67.0,61.0,203,840,4804
387,Cafe de Verde,food_beverage,12.940859,77.6234175,70.0,59.0,71.0,220,742,5587
388,Krust Cafe,food_beverage,12.9283909,77.6361652,48.0,67.0,52.0,152,840,4053
389,Bao To Me,food_beverage,12.9288004,77.6353345,61.0,50.0,60.0,192,634,4690
390,Crave by Leena,retail,12.9340414,77.6302958,53.0,61.0,50.0,165,766,3952
391,Bethany High School,education,12.940644365222491,77.62094123472046,49.0,60.0,53.0,154,760,4142
392,Oasis Centre,retail,12.937496377714762,77.62813246898668,57.0,58.0,59.0,178,729,4634
393,Koramangala TTMC,transport,12.94089903320367,77.62502376839142,58.0,58.0,69.0,182,731,5418
394,St. Francis College,education,12.926316260568475,77.62956979061617,53.0,71.0,60.0,166,888,4710
395,Vemana Institute of Technology,education,12.929611778405706,77.62258017542999,52.0,71.0,58.0,163,892,4538
396,RJS Institute of Management Studies,education,12.929462090188391,77.62300452698997,60.0,71.0,58.0,188,886,4539
397,Spencer,retail,12.927175149999998,77.6330217,58.0,71.0,52.0,183,894,4096
398,nan,transport,12.9271608,77.6325899,61.0,57.0,67.0,193,722,5281
399,Reliance Digital,retail,12.936462309263872,77.6280704065918,68.0,62.0,69.0,215,779,5405
400,Chinmaya Mission School,education,12.935097072708984,77.6276590092524,70.0,65.0,67.0,220,818,5293
401,Syndicate Bank,financial,12.944142636735934,77.62342436657033,62.0,66.0,59.0,196,831,4618
402,Domino's,food_beverage,12.9403448,77.62528764999999,60.0,65.0,52.0,187,822,4097
403,Oyo Olivia Comforts,other,12.94038225744288,77.6269699785543,61.0,67.0,61.0,191,843,4753
404,Nuts Corner,retail,12.930975102003606,77.63384218339677,49.0,51.0,65.0,153,647,5101
405,Udupi Upahar,food_beverage,12.925199099999995,77.63373415000001,50.0,68.0,59.0,157,850,4672
406,Philips Hue,retail,12.936850547557171,77.62700026614809,50.0,67.0,68.0,156,846,5359
407,nan,healthcare,12.934673133418345,77.62878155407806,49.0,52.0,52.0,153,656,4119
408,Proteeth Dental,healthcare,12.934625434983348,77.62846722158783,56.0,56.0,69.0,176,699,5443
409,Panasonic Brand shop 100 feet,retail,12.935169964895575,77.62475843622559,52.0,63.0,49.0,163,787,3819
410,The Hole In The Wall Cafe,food_beverage,12.934761417513673,77.62548850250727,51.0,70.0,68.0,161,883,5335
411,nan,healthcare,12.941083100000002,77.62377695,63.0,65.0,50.0,198,822,3893
412,Kaveri Petrol,transport,12.945440935943457,77.61866558583151,61.0,61.0,56.0,192,765,4403
413,Wildcraft,retail,12.936949363902386,77.62692309140724,56.0,65.0,51.0,176,815,3997
414,Indian Oil,transport,12.939510381814364,77.62535382727224,60.0,53.0,62.0,188,664,4844
415,nan,transport,12.938334898768883,77.62653739806333,63.0,58.0,58.0,199,732,4552
416,Indian Oil,transport,12.945240603937952,77.61901230380609,65.0,69.0,60.0,205,873,4693
417,Shell,transport,12.925358758881883,77.6376478707665,59.0,52.0,51.0,185,648,4012
418,St. Francis Composite PU College,education,12.927087863253961,77.63016745060263,59.0,49.0,66.0,186,616,5186
419,nan,education,12.92939746956072,77.62312343096407,67.0,71.0,53.0,211,897,4162
420,DMart,retail,12.932151700000002,77.63462280000002,53.0,62.0,64.0,166,783,5048
421,St. Francis School,education,12.924927014692049,77.6292232963539,66.0,53.0,62.0,207,661,4870
422,nan,transport,12.925280600000002,77.63412160000001,50.0,54.0,55.0,157,680,4282
423,RJS Polytechnic,education,12.929071145506079,77.62385434039373,67.0,66.0,52.0,210,834,4107
